{
"type": "FeatureCollection",
"crs": { "type": "name", "properties": { "name": "urn:ogc:def:crs:OGC:1.3:CRS84" } },
"features": [
{ "type": "Feature", "properties": { "ROCQUE_ID": 1.0, "P_NAME": "Chapel Court", "NAME": "West End", "ORIG_FID": 133 }, "geometry": { "type": "Point", "coordinates": [ -0.146676454576664, 51.515149127342738 ] } },
{ "type": "Feature", "properties": { "ROCQUE_ID": 2.0, "P_NAME": "Cold Bath", "NAME": "Marylebone High Street", "ORIG_FID": 134 }, "geometry": { "type": "Point", "coordinates": [ -0.146820986818057, 51.517860074643977 ] } },
{ "type": "Feature", "properties": { "ROCQUE_ID": 4.0, "P_NAME": "Dagets Farm", "NAME": "Regent's Park", "ORIG_FID": 135 }, "geometry": { "type": "Point", "coordinates": [ -0.156616760941688, 51.52463428262854 ] } },
{ "type": "Feature", "properties": { "ROCQUE_ID": 5.0, "P_NAME": "French Church", "NAME": "Marylebone High Street", "ORIG_FID": 136 }, "geometry": { "type": "Point", "coordinates": [ -0.151495650236029, 51.521254069346469 ] } },
{ "type": "Feature", "properties": { "ROCQUE_ID": 6.0, "P_NAME": "Halfway House", "NAME": "Marylebone High Street", "ORIG_FID": 137 }, "geometry": { "type": "Point", "coordinates": [ -0.146959296893328, 51.518396278028376 ] } },
{ "type": "Feature", "properties": { "ROCQUE_ID": 7.0, "P_NAME": "Henrietta Street", "NAME": "Marylebone High Street", "ORIG_FID": 138 }, "geometry": { "type": "Point", "coordinates": [ -0.148087375040632, 51.515439997136127 ] } },
{ "type": "Feature", "properties": { "ROCQUE_ID": 7.0, "P_NAME": "Henrietta Street", "NAME": "West End", "ORIG_FID": 139 }, "geometry": { "type": "Point", "coordinates": [ -0.146606410504319, 51.51566810242366 ] } },
{ "type": "Feature", "properties": { "ROCQUE_ID": 8.0, "P_NAME": "Jews Harp House", "NAME": "Regent's Park", "ORIG_FID": 140 }, "geometry": { "type": "Point", "coordinates": [ -0.152952257310972, 51.526454089093022 ] } },
{ "type": "Feature", "properties": { "ROCQUE_ID": 9.0, "P_NAME": "Love Lane", "NAME": "Regent's Park", "ORIG_FID": 141 }, "geometry": { "type": "Point", "coordinates": [ -0.151233289507218, 51.52595711464528 ] } },
{ "type": "Feature", "properties": { "ROCQUE_ID": 10.0, "P_NAME": "Marybone Burying Ground", "NAME": "Marylebone High Street", "ORIG_FID": 142 }, "geometry": { "type": "Point", "coordinates": [ -0.153990918421187, 51.519994799804408 ] } },
{ "type": "Feature", "properties": { "ROCQUE_ID": 11.0, "P_NAME": "Marybone Gardens", "NAME": "Marylebone High Street", "ORIG_FID": 143 }, "geometry": { "type": "Point", "coordinates": [ -0.150307753414381, 51.521483876509592 ] } },
{ "type": "Feature", "properties": { "ROCQUE_ID": 12.0, "P_NAME": "Marybone Lane", "NAME": "Marylebone High Street", "ORIG_FID": 144 }, "geometry": { "type": "Point", "coordinates": [ -0.149847601773217, 51.516209479770623 ] } },
{ "type": "Feature", "properties": { "ROCQUE_ID": 13.0, "P_NAME": "Oxford Chapel", "NAME": "West End", "ORIG_FID": 145 }, "geometry": { "type": "Point", "coordinates": [ -0.147194151359145, 51.515414104214869 ] } },
{ "type": "Feature", "properties": { "ROCQUE_ID": 14.0, "P_NAME": "St Mary le Bone", "NAME": "Marylebone High Street", "ORIG_FID": 146 }, "geometry": { "type": "Point", "coordinates": [ -0.15200222202111, 51.521973695838824 ] } },
{ "type": "Feature", "properties": { "ROCQUE_ID": 15.0, "P_NAME": "St Mary le Bone (Street)", "NAME": "Marylebone High Street", "ORIG_FID": 147 }, "geometry": { "type": "Point", "coordinates": [ -0.151687982375734, 51.519094083108939 ] } },
{ "type": "Feature", "properties": { "ROCQUE_ID": 15.0, "P_NAME": "St Mary le Bone (Street)", "NAME": "Regent's Park", "ORIG_FID": 148 }, "geometry": { "type": "Point", "coordinates": [ -0.152593745326158, 51.525075760902837 ] } },
{ "type": "Feature", "properties": { "ROCQUE_ID": 16.0, "P_NAME": "Tile Kiln", "NAME": "Marylebone High Street", "ORIG_FID": 149 }, "geometry": { "type": "Point", "coordinates": [ -0.152328216063324, 51.515563403314445 ] } },
{ "type": "Feature", "properties": { "ROCQUE_ID": 17.0, "P_NAME": "Wellbeck Mewse", "NAME": "Marylebone High Street", "ORIG_FID": 150 }, "geometry": { "type": "Point", "coordinates": [ -0.14795913011767, 51.515969554719049 ] } },
{ "type": "Feature", "properties": { "ROCQUE_ID": 18.0, "P_NAME": "Wellbeck Street", "NAME": "Marylebone High Street", "ORIG_FID": 151 }, "geometry": { "type": "Point", "coordinates": [ -0.148605187132489, 51.515867621346842 ] } },
{ "type": "Feature", "properties": { "ROCQUE_ID": 19.0, "P_NAME": "Wigmore Row", "NAME": "Marylebone High Street", "ORIG_FID": 152 }, "geometry": { "type": "Point", "coordinates": [ -0.147884466859978, 51.516508920700289 ] } },
{ "type": "Feature", "properties": { "ROCQUE_ID": 19.0, "P_NAME": "Wigmore Row", "NAME": "West End", "ORIG_FID": 153 }, "geometry": { "type": "Point", "coordinates": [ -0.146014819387347, 51.516859083843883 ] } },
{ "type": "Feature", "properties": { "ROCQUE_ID": 20.0, "P_NAME": "Wimple Street", "NAME": "Marylebone High Street", "ORIG_FID": 154 }, "geometry": { "type": "Point", "coordinates": [ -0.147322598611936, 51.51609244348947 ] } },
{ "type": "Feature", "properties": { "ROCQUE_ID": 23.0, "P_NAME": "Back Way", "NAME": "West End", "ORIG_FID": 155 }, "geometry": { "type": "Point", "coordinates": [ -0.147514796350151, 51.505637604161166 ] } },
{ "type": "Feature", "properties": { "ROCQUE_ID": 24.0, "P_NAME": "Back-Brook Street", "NAME": "West End", "ORIG_FID": 156 }, "geometry": { "type": "Point", "coordinates": [ -0.147947505582124, 51.51316484803101 ] } },
{ "type": "Feature", "properties": { "ROCQUE_ID": 25.0, "P_NAME": "Bell Yard", "NAME": "West End", "ORIG_FID": 157 }, "geometry": { "type": "Point", "coordinates": [ -0.153314023569692, 51.509528937574942 ] } },
{ "type": "Feature", "properties": { "ROCQUE_ID": 26.0, "P_NAME": "Bird Street", "NAME": "West End", "ORIG_FID": 158 }, "geometry": { "type": "Point", "coordinates": [ -0.150267444725614, 51.513297800032888 ] } },
{ "type": "Feature", "properties": { "ROCQUE_ID": 27.0, "P_NAME": "Bishops Yard", "NAME": "West End", "ORIG_FID": 159 }, "geometry": { "type": "Point", "coordinates": [ -0.149196731217671, 51.510577671520878 ] } },
{ "type": "Feature", "properties": { "ROCQUE_ID": 28.0, "P_NAME": "Blackburns Mewse", "NAME": "West End", "ORIG_FID": 160 }, "geometry": { "type": "Point", "coordinates": [ -0.153663174889516, 51.510854624561034 ] } },
{ "type": "Feature", "properties": { "ROCQUE_ID": 29.0, "P_NAME": "Brew House", "NAME": "West End", "ORIG_FID": 161 }, "geometry": { "type": "Point", "coordinates": [ -0.151094244676642, 51.503640069509856 ] } },
{ "type": "Feature", "properties": { "ROCQUE_ID": 30.0, "P_NAME": "Brick Kiln", "NAME": "Knightsbridge and Belgravia", "ORIG_FID": 162 }, "geometry": { "type": "Point", "coordinates": [ -0.153393548447639, 51.50030893762596 ] } },
{ "type": "Feature", "properties": { "ROCQUE_ID": 31.0, "P_NAME": "Brick Street", "NAME": "West End", "ORIG_FID": 163 }, "geometry": { "type": "Point", "coordinates": [ -0.148264038260095, 51.505186356138438 ] } },
{ "type": "Feature", "properties": { "ROCQUE_ID": 34.0, "P_NAME": "Brooks Mewse", "NAME": "West End", "ORIG_FID": 164 }, "geometry": { "type": "Point", "coordinates": [ -0.146944066917058, 51.512337472406216 ] } },
{ "type": "Feature", "properties": { "ROCQUE_ID": 35.0, "P_NAME": "Brown Street", "NAME": "West End", "ORIG_FID": 165 }, "geometry": { "type": "Point", "coordinates": [ -0.151485006674193, 51.513009742659051 ] } },
{ "type": "Feature", "properties": { "ROCQUE_ID": 36.0, "P_NAME": "Browns Court", "NAME": "West End", "ORIG_FID": 166 }, "geometry": { "type": "Point", "coordinates": [ -0.154457462660503, 51.513069770066068 ] } },
{ "type": "Feature", "properties": { "ROCQUE_ID": 37.0, "P_NAME": "Browns Passage", "NAME": "West End", "ORIG_FID": 167 }, "geometry": { "type": "Point", "coordinates": [ -0.15429323137505, 51.512519239913672 ] } },
{ "type": "Feature", "properties": { "ROCQUE_ID": 39.0, "P_NAME": "Chandlers Street", "NAME": "West End", "ORIG_FID": 168 }, "geometry": { "type": "Point", "coordinates": [ -0.149866450054105, 51.513462100876495 ] } },
{ "type": "Feature", "properties": { "ROCQUE_ID": 40.0, "P_NAME": "Chapel", "NAME": "Knightsbridge and Belgravia", "ORIG_FID": 169 }, "geometry": { "type": "Point", "coordinates": [ -0.157799592940137, 51.502481618081219 ] } },
{ "type": "Feature", "properties": { "ROCQUE_ID": 41.0, "P_NAME": "Chapel", "NAME": "West End", "ORIG_FID": 170 }, "geometry": { "type": "Point", "coordinates": [ -0.15119758626679, 51.509011006040964 ] } },
{ "type": "Feature", "properties": { "ROCQUE_ID": 42.0, "P_NAME": "Chapel", "NAME": "West End", "ORIG_FID": 171 }, "geometry": { "type": "Point", "coordinates": [ -0.147607647872064, 51.506553752755281 ] } },
{ "type": "Feature", "properties": { "ROCQUE_ID": 43.0, "P_NAME": "Chapel Court", "NAME": "West End", "ORIG_FID": 172 }, "geometry": { "type": "Point", "coordinates": [ -0.151141317561269, 51.508856284141075 ] } },
{ "type": "Feature", "properties": { "ROCQUE_ID": 44.0, "P_NAME": "Chapel Street", "NAME": "West End", "ORIG_FID": 173 }, "geometry": { "type": "Point", "coordinates": [ -0.152541700575966, 51.508770255197305 ] } },
{ "type": "Feature", "properties": { "ROCQUE_ID": 45.0, "P_NAME": "Chapel Street", "NAME": "West End", "ORIG_FID": 174 }, "geometry": { "type": "Point", "coordinates": [ -0.147562175814528, 51.50638996437192 ] } },
{ "type": "Feature", "properties": { "ROCQUE_ID": 46.0, "P_NAME": "Charles Street", "NAME": "West End", "ORIG_FID": 175 }, "geometry": { "type": "Point", "coordinates": [ -0.149621149234008, 51.510513929941226 ] } },
{ "type": "Feature", "properties": { "ROCQUE_ID": 47.0, "P_NAME": "Chesterfield House", "NAME": "West End", "ORIG_FID": 176 }, "geometry": { "type": "Point", "coordinates": [ -0.15014010987943, 51.5068830747623 ] } },
{ "type": "Feature", "properties": { "ROCQUE_ID": 48.0, "P_NAME": "Collinss Court", "NAME": "West End", "ORIG_FID": 177 }, "geometry": { "type": "Point", "coordinates": [ -0.147536604083143, 51.505004065693356 ] } },
{ "type": "Feature", "properties": { "ROCQUE_ID": 49.0, "P_NAME": "Constitution Hill", "NAME": "St. James's", "ORIG_FID": 178 }, "geometry": { "type": "Point", "coordinates": [ -0.145969635050278, 51.502487847115844 ] } },
{ "type": "Feature", "properties": { "ROCQUE_ID": 49.0, "P_NAME": "Constitution Hill", "NAME": "West End", "ORIG_FID": 179 }, "geometry": { "type": "Point", "coordinates": [ -0.150879843800794, 51.502557081112172 ] } },
{ "type": "Feature", "properties": { "ROCQUE_ID": 51.0, "P_NAME": "Curzon Street", "NAME": "West End", "ORIG_FID": 180 }, "geometry": { "type": "Point", "coordinates": [ -0.148672893643379, 51.506627938651945 ] } },
{ "type": "Feature", "properties": { "ROCQUE_ID": 52.0, "P_NAME": "David Street", "NAME": "West End", "ORIG_FID": 181 }, "geometry": { "type": "Point", "coordinates": [ -0.148323454312049, 51.512702024600003 ] } },
{ "type": "Feature", "properties": { "ROCQUE_ID": 53.0, "P_NAME": "Dean Street", "NAME": "West End", "ORIG_FID": 182 }, "geometry": { "type": "Point", "coordinates": [ -0.151884447899647, 51.507220480474643 ] } },
{ "type": "Feature", "properties": { "ROCQUE_ID": 54.0, "P_NAME": "Down Street", "NAME": "West End", "ORIG_FID": 183 }, "geometry": { "type": "Point", "coordinates": [ -0.148204769240692, 51.505008395586628 ] } },
{ "type": "Feature", "properties": { "ROCQUE_ID": 55.0, "P_NAME": "Duke Street", "NAME": "West End", "ORIG_FID": 184 }, "geometry": { "type": "Point", "coordinates": [ -0.150904865411576, 51.513221332395915 ] } },
{ "type": "Feature", "properties": { "ROCQUE_ID": 56.0, "P_NAME": "Engine Street", "NAME": "West End", "ORIG_FID": 185 }, "geometry": { "type": "Point", "coordinates": [ -0.14662373426836, 51.505233366333414 ] } },
{ "type": "Feature", "properties": { "ROCQUE_ID": 57.0, "P_NAME": "General Stewards School", "NAME": "West End", "ORIG_FID": 186 }, "geometry": { "type": "Point", "coordinates": [ -0.149875282368157, 51.508867185679264 ] } },
{ "type": "Feature", "properties": { "ROCQUE_ID": 58.0, "P_NAME": "Geneva Row", "NAME": "Marylebone High Street", "ORIG_FID": 187 }, "geometry": { "type": "Point", "coordinates": [ -0.148099652782548, 51.514719168248121 ] } },
{ "type": "Feature", "properties": { "ROCQUE_ID": 60.0, "P_NAME": "George Yard", "NAME": "West End", "ORIG_FID": 188 }, "geometry": { "type": "Point", "coordinates": [ -0.152180799515918, 51.513247186259832 ] } },
{ "type": "Feature", "properties": { "ROCQUE_ID": 61.0, "P_NAME": "Green Street", "NAME": "West End", "ORIG_FID": 189 }, "geometry": { "type": "Point", "coordinates": [ -0.155504838039633, 51.51259770541219 ] } },
{ "type": "Feature", "properties": { "ROCQUE_ID": 62.0, "P_NAME": "Grosvenor Gate Lodge", "NAME": "Knightsbridge and Belgravia", "ORIG_FID": 190 }, "geometry": { "type": "Point", "coordinates": [ -0.156638956686947, 51.509898785152473 ] } },
{ "type": "Feature", "properties": { "ROCQUE_ID": 64.0, "P_NAME": "Grosvenor Square", "NAME": "West End", "ORIG_FID": 191 }, "geometry": { "type": "Point", "coordinates": [ -0.151346201775596, 51.51148713263683 ] } },
{ "type": "Feature", "properties": { "ROCQUE_ID": 65.0, "P_NAME": "Grosvenor Street", "NAME": "West End", "ORIG_FID": 192 }, "geometry": { "type": "Point", "coordinates": [ -0.147100888250861, 51.511744784133043 ] } },
{ "type": "Feature", "properties": { "ROCQUE_ID": 68.0, "P_NAME": "Guard Stable", "NAME": "West End", "ORIG_FID": 193 }, "geometry": { "type": "Point", "coordinates": [ -0.156238676223438, 51.512014665466268 ] } },
{ "type": "Feature", "properties": { "ROCQUE_ID": 69.0, "P_NAME": "Guard Stable", "NAME": "West End", "ORIG_FID": 194 }, "geometry": { "type": "Point", "coordinates": [ -0.150364482600708, 51.506027180876117 ] } },
{ "type": "Feature", "properties": { "ROCQUE_ID": 70.0, "P_NAME": "Guard Stable (2)", "NAME": "West End", "ORIG_FID": 195 }, "geometry": { "type": "Point", "coordinates": [ -0.152044654299971, 51.508495562302414 ] } },
{ "type": "Feature", "properties": { "ROCQUE_ID": 71.0, "P_NAME": "Hamilton Street", "NAME": "West End", "ORIG_FID": 196 }, "geometry": { "type": "Point", "coordinates": [ -0.150229653401766, 51.504329945310019 ] } },
{ "type": "Feature", "properties": { "ROCQUE_ID": 72.0, "P_NAME": "Hart Street", "NAME": "West End", "ORIG_FID": 197 }, "geometry": { "type": "Point", "coordinates": [ -0.151601955585647, 51.513243689318188 ] } },
{ "type": "Feature", "properties": { "ROCQUE_ID": 73.0, "P_NAME": "Haunch of Venison Yard", "NAME": "West End", "ORIG_FID": 198 }, "geometry": { "type": "Point", "coordinates": [ -0.14635551936226, 51.513336065283511 ] } },
{ "type": "Feature", "properties": { "ROCQUE_ID": 74.0, "P_NAME": "Hide Park (Part of)", "NAME": "Knightsbridge and Belgravia", "ORIG_FID": 199 }, "geometry": { "type": "Point", "coordinates": [ -0.162955179228447, 51.508653300174046 ] } },
{ "type": "Feature", "properties": { "ROCQUE_ID": 74.0, "P_NAME": "Hide Park (Part of)", "NAME": "West End", "ORIG_FID": 200 }, "geometry": { "type": "Point", "coordinates": [ -0.150820337003097, 51.50483092374634 ] } },
{ "type": "Feature", "properties": { "ROCQUE_ID": 75.0, "P_NAME": "Hide Park Corner", "NAME": "Knightsbridge and Belgravia", "ORIG_FID": 201 }, "geometry": { "type": "Point", "coordinates": [ -0.152574302628636, 51.502961855381727 ] } },
{ "type": "Feature", "properties": { "ROCQUE_ID": 75.0, "P_NAME": "Hide Park Corner", "NAME": "West End", "ORIG_FID": 202 }, "geometry": { "type": "Point", "coordinates": [ -0.151116652006749, 51.503252041933592 ] } },
{ "type": "Feature", "properties": { "ROCQUE_ID": 76.0, "P_NAME": "Hide Park Gate", "NAME": "Knightsbridge and Belgravia", "ORIG_FID": 203 }, "geometry": { "type": "Point", "coordinates": [ -0.152340453816578, 51.503237800730858 ] } },
{ "type": "Feature", "properties": { "ROCQUE_ID": 76.0, "P_NAME": "Hide Park Gate", "NAME": "West End", "ORIG_FID": 204 }, "geometry": { "type": "Point", "coordinates": [ -0.1521617777762, 51.503282231453341 ] } },
{ "type": "Feature", "properties": { "ROCQUE_ID": 77.0, "P_NAME": "James Street", "NAME": "West End", "ORIG_FID": 205 }, "geometry": { "type": "Point", "coordinates": [ -0.149815885815769, 51.513360142998863 ] } },
{ "type": "Feature", "properties": { "ROCQUE_ID": 78.0, "P_NAME": "John Street", "NAME": "West End", "ORIG_FID": 206 }, "geometry": { "type": "Point", "coordinates": [ -0.146347546135075, 51.51106747664744 ] } },
{ "type": "Feature", "properties": { "ROCQUE_ID": 79.0, "P_NAME": "King Street", "NAME": "West End", "ORIG_FID": 207 }, "geometry": { "type": "Point", "coordinates": [ -0.155160832626279, 51.51077536662342 ] } },
{ "type": "Feature", "properties": { "ROCQUE_ID": 80.0, "P_NAME": "Kings New Road to Kensington (The)", "NAME": "Knightsbridge and Belgravia", "ORIG_FID": 208 }, "geometry": { "type": "Point", "coordinates": [ -0.162302908545826, 51.502519316854887 ] } },
{ "type": "Feature", "properties": { "ROCQUE_ID": 81.0, "P_NAME": "Kings Old Road to Kensington (The)", "NAME": "Knightsbridge and Belgravia", "ORIG_FID": 209 }, "geometry": { "type": "Point", "coordinates": [ -0.16229847271461, 51.503527674765792 ] } },
{ "type": "Feature", "properties": { "ROCQUE_ID": 82.0, "P_NAME": "Knights Bridge", "NAME": "Brompton", "ORIG_FID": 210 }, "geometry": { "type": "Point", "coordinates": [ -0.159596388228238, 51.501953508821316 ] } },
{ "type": "Feature", "properties": { "ROCQUE_ID": 82.0, "P_NAME": "Knights Bridge", "NAME": "Knightsbridge and Belgravia", "ORIG_FID": 211 }, "geometry": { "type": "Point", "coordinates": [ -0.16217762575252, 51.501694327802397 ] } },
{ "type": "Feature", "properties": { "ROCQUE_ID": 83.0, "P_NAME": "Little Grove Street", "NAME": "West End", "ORIG_FID": 212 }, "geometry": { "type": "Point", "coordinates": [ -0.146635471784975, 51.51152196113253 ] } },
{ "type": "Feature", "properties": { "ROCQUE_ID": 84.0, "P_NAME": "Lock Hospital (The)", "NAME": "Knightsbridge and Belgravia", "ORIG_FID": 213 }, "geometry": { "type": "Point", "coordinates": [ -0.149240066006314, 51.500063890300225 ] } },
{ "type": "Feature", "properties": { "ROCQUE_ID": 85.0, "P_NAME": "Lodge", "NAME": "West End", "ORIG_FID": 214 }, "geometry": { "type": "Point", "coordinates": [ -0.151720479072537, 51.503473170276266 ] } },
{ "type": "Feature", "properties": { "ROCQUE_ID": 86.0, "P_NAME": "Lodge", "NAME": "West End", "ORIG_FID": 215 }, "geometry": { "type": "Point", "coordinates": [ -0.151255108357873, 51.50309442676371 ] } },
{ "type": "Feature", "properties": { "ROCQUE_ID": 87.0, "P_NAME": "Mar[ket] C[ourt] (?)", "NAME": "West End", "ORIG_FID": 216 }, "geometry": { "type": "Point", "coordinates": [ -0.14646421384532, 51.506735175440554 ] } },
{ "type": "Feature", "properties": { "ROCQUE_ID": 88.0, "P_NAME": "Masons Yard", "NAME": "West End", "ORIG_FID": 217 }, "geometry": { "type": "Point", "coordinates": [ -0.153042905614711, 51.513630589237437 ] } },
{ "type": "Feature", "properties": { "ROCQUE_ID": 92.0, "P_NAME": "Mount Row", "NAME": "West End", "ORIG_FID": 218 }, "geometry": { "type": "Point", "coordinates": [ -0.148513202264439, 51.510714617616031 ] } },
{ "type": "Feature", "properties": { "ROCQUE_ID": 93.0, "P_NAME": "Mount Street", "NAME": "West End", "ORIG_FID": 219 }, "geometry": { "type": "Point", "coordinates": [ -0.150957204168662, 51.509683910175227 ] } },
{ "type": "Feature", "properties": { "ROCQUE_ID": 94.0, "P_NAME": "North Audley Street", "NAME": "West End", "ORIG_FID": 220 }, "geometry": { "type": "Point", "coordinates": [ -0.153337192023173, 51.512863231997471 ] } },
{ "type": "Feature", "properties": { "ROCQUE_ID": 95.0, "P_NAME": "North Court", "NAME": "West End", "ORIG_FID": 221 }, "geometry": { "type": "Point", "coordinates": [ -0.150065446097869, 51.508830767474137 ] } },
{ "type": "Feature", "properties": { "ROCQUE_ID": 96.0, "P_NAME": "North Row", "NAME": "West End", "ORIG_FID": 222 }, "geometry": { "type": "Point", "coordinates": [ -0.154673122277018, 51.513312341121491 ] } },
{ "type": "Feature", "properties": { "ROCQUE_ID": 97.0, "P_NAME": "Paradise Row", "NAME": "West End", "ORIG_FID": 223 }, "geometry": { "type": "Point", "coordinates": [ -0.146996435942128, 51.513262199121527 ] } },
{ "type": "Feature", "properties": { "ROCQUE_ID": 98.0, "P_NAME": "Park Street", "NAME": "West End", "ORIG_FID": 224 }, "geometry": { "type": "Point", "coordinates": [ -0.154630091972649, 51.510833699139766 ] } },
{ "type": "Feature", "properties": { "ROCQUE_ID": 100.0, "P_NAME": "Pedley Street", "NAME": "West End", "ORIG_FID": 225 }, "geometry": { "type": "Point", "coordinates": [ -0.146791777748149, 51.513974917877931 ] } },
{ "type": "Feature", "properties": { "ROCQUE_ID": 101.0, "P_NAME": "Pepper Alley", "NAME": "West End", "ORIG_FID": 226 }, "geometry": { "type": "Point", "coordinates": [ -0.147833730618004, 51.504956522665452 ] } },
{ "type": "Feature", "properties": { "ROCQUE_ID": 102.0, "P_NAME": "Ph and oelig nix Yard", "NAME": "West End", "ORIG_FID": 227 }, "geometry": { "type": "Point", "coordinates": [ -0.147631410916802, 51.512036818137858 ] } },
{ "type": "Feature", "properties": { "ROCQUE_ID": 103.0, "P_NAME": "Pound", "NAME": "Marylebone High Street", "ORIG_FID": 228 }, "geometry": { "type": "Point", "coordinates": [ -0.148443220648915, 51.514697308302857 ] } },
{ "type": "Feature", "properties": { "ROCQUE_ID": 104.0, "P_NAME": "Poverty Lane", "NAME": "West End", "ORIG_FID": 229 }, "geometry": { "type": "Point", "coordinates": [ -0.147852342750411, 51.513428324542474 ] } },
{ "type": "Feature", "properties": { "ROCQUE_ID": 105.0, "P_NAME": "Providence Court", "NAME": "West End", "ORIG_FID": 230 }, "geometry": { "type": "Point", "coordinates": [ -0.152513367705978, 51.512662077788264 ] } },
{ "type": "Feature", "properties": { "ROCQUE_ID": 106.0, "P_NAME": "Queen Street", "NAME": "West End", "ORIG_FID": 231 }, "geometry": { "type": "Point", "coordinates": [ -0.151695974753238, 51.513516473642085 ] } },
{ "type": "Feature", "properties": { "ROCQUE_ID": 107.0, "P_NAME": "Reservoir to Chelsea Water Works", "NAME": "Knightsbridge and Belgravia", "ORIG_FID": 232 }, "geometry": { "type": "Point", "coordinates": [ -0.155862264160533, 51.508405369357206 ] } },
{ "type": "Feature", "properties": { "ROCQUE_ID": 108.0, "P_NAME": "Revess Mewse", "NAME": "West End", "ORIG_FID": 233 }, "geometry": { "type": "Point", "coordinates": [ -0.153070735745132, 51.50988199270796 ] } },
{ "type": "Feature", "properties": { "ROCQUE_ID": 109.0, "P_NAME": "Riding P[lace] (?)", "NAME": "West End", "ORIG_FID": 234 }, "geometry": { "type": "Point", "coordinates": [ -0.150842097471468, 51.509934460977092 ] } },
{ "type": "Feature", "properties": { "ROCQUE_ID": 110.0, "P_NAME": "Run Horse Yard", "NAME": "West End", "ORIG_FID": 235 }, "geometry": { "type": "Point", "coordinates": [ -0.14817713748198, 51.51334360713372 ] } },
{ "type": "Feature", "properties": { "ROCQUE_ID": 111.0, "P_NAME": "Serpentine River (Part of The)", "NAME": "Knightsbridge and Belgravia", "ORIG_FID": 236 }, "geometry": { "type": "Point", "coordinates": [ -0.160785704501905, 51.504519904381596 ] } },
{ "type": "Feature", "properties": { "ROCQUE_ID": 112.0, "P_NAME": "Shepherds Court", "NAME": "West End", "ORIG_FID": 237 }, "geometry": { "type": "Point", "coordinates": [ -0.154192431946285, 51.511911738722119 ] } },
{ "type": "Feature", "properties": { "ROCQUE_ID": 113.0, "P_NAME": "Shepherds Market", "NAME": "West End", "ORIG_FID": 238 }, "geometry": { "type": "Point", "coordinates": [ -0.14659888955066, 51.506525446544401 ] } },
{ "type": "Feature", "properties": { "ROCQUE_ID": 114.0, "P_NAME": "Shepherds Mewse", "NAME": "West End", "ORIG_FID": 239 }, "geometry": { "type": "Point", "coordinates": [ -0.15410476597026, 51.512266277451999 ] } },
{ "type": "Feature", "properties": { "ROCQUE_ID": 115.0, "P_NAME": "Silver Court", "NAME": "West End", "ORIG_FID": 240 }, "geometry": { "type": "Point", "coordinates": [ -0.147887303610332, 51.514089896285441 ] } },
{ "type": "Feature", "properties": { "ROCQUE_ID": 116.0, "P_NAME": "Sneads Court", "NAME": "West End", "ORIG_FID": 241 }, "geometry": { "type": "Point", "coordinates": [ -0.146478486189153, 51.505491348390933 ] } },
{ "type": "Feature", "properties": { "ROCQUE_ID": 117.0, "P_NAME": "South Audley Street", "NAME": "West End", "ORIG_FID": 242 }, "geometry": { "type": "Point", "coordinates": [ -0.151374641107395, 51.508651334326714 ] } },
{ "type": "Feature", "properties": { "ROCQUE_ID": 118.0, "P_NAME": "South Moulton Row", "NAME": "West End", "ORIG_FID": 243 }, "geometry": { "type": "Point", "coordinates": [ -0.148245615302585, 51.513868085807189 ] } },
{ "type": "Feature", "properties": { "ROCQUE_ID": 119.0, "P_NAME": "South Street", "NAME": "West End", "ORIG_FID": 244 }, "geometry": { "type": "Point", "coordinates": [ -0.152309729834087, 51.508206791826524 ] } },
{ "type": "Feature", "properties": { "ROCQUE_ID": 120.0, "P_NAME": "St Georges Burying Ground", "NAME": "West End", "ORIG_FID": 245 }, "geometry": { "type": "Point", "coordinates": [ -0.150552041537594, 51.509166716423351 ] } },
{ "type": "Feature", "properties": { "ROCQUE_ID": 121.0, "P_NAME": "St Georges Hospital", "NAME": "Knightsbridge and Belgravia", "ORIG_FID": 246 }, "geometry": { "type": "Point", "coordinates": [ -0.152810541621875, 51.502564337104559 ] } },
{ "type": "Feature", "properties": { "ROCQUE_ID": 122.0, "P_NAME": "Stable Yard", "NAME": "West End", "ORIG_FID": 247 }, "geometry": { "type": "Point", "coordinates": [ -0.152545476215892, 51.508387398673221 ] } },
{ "type": "Feature", "properties": { "ROCQUE_ID": 123.0, "P_NAME": "Stable Yard", "NAME": "West End", "ORIG_FID": 248 }, "geometry": { "type": "Point", "coordinates": [ -0.152093838376459, 51.512617053755093 ] } },
{ "type": "Feature", "properties": { "ROCQUE_ID": 124.0, "P_NAME": "Stable Yard", "NAME": "West End", "ORIG_FID": 249 }, "geometry": { "type": "Point", "coordinates": [ -0.151353533030488, 51.503581392054912 ] } },
{ "type": "Feature", "properties": { "ROCQUE_ID": 125.0, "P_NAME": "Stable Yard", "NAME": "West End", "ORIG_FID": 250 }, "geometry": { "type": "Point", "coordinates": [ -0.148286016948987, 51.51007013261551 ] } },
{ "type": "Feature", "properties": { "ROCQUE_ID": 126.0, "P_NAME": "Stable Yard", "NAME": "West End", "ORIG_FID": 251 }, "geometry": { "type": "Point", "coordinates": [ -0.146901538595557, 51.513693934190087 ] } },
{ "type": "Feature", "properties": { "ROCQUE_ID": 127.0, "P_NAME": "Stables", "NAME": "West End", "ORIG_FID": 252 }, "geometry": { "type": "Point", "coordinates": [ -0.149027773586567, 51.513259501778521 ] } },
{ "type": "Feature", "properties": { "ROCQUE_ID": 129.0, "P_NAME": "Three Horshoe Yard", "NAME": "West End", "ORIG_FID": 253 }, "geometry": { "type": "Point", "coordinates": [ -0.149475443933625, 51.513165802927688 ] } },
{ "type": "Feature", "properties": { "ROCQUE_ID": 130.0, "P_NAME": "Three King Yard (2)", "NAME": "West End", "ORIG_FID": 254 }, "geometry": { "type": "Point", "coordinates": [ -0.148748422448989, 51.511997395893559 ] } },
{ "type": "Feature", "properties": { "ROCQUE_ID": 131.0, "P_NAME": "Tiburn", "NAME": "Bryanston and Dorset Square", "ORIG_FID": 255 }, "geometry": { "type": "Point", "coordinates": [ -0.165121052821632, 51.51658818020951 ] } },
{ "type": "Feature", "properties": { "ROCQUE_ID": 131.0, "P_NAME": "Tiburn", "NAME": "Church Street", "ORIG_FID": 256 }, "geometry": { "type": "Point", "coordinates": [ -0.170464674360119, 51.520268792344723 ] } },
{ "type": "Feature", "properties": { "ROCQUE_ID": 131.0, "P_NAME": "Tiburn", "NAME": "Hyde Park", "ORIG_FID": 257 }, "geometry": { "type": "Point", "coordinates": [ -0.162774533440825, 51.513022502418607 ] } },
{ "type": "Feature", "properties": { "ROCQUE_ID": 131.0, "P_NAME": "Tiburn", "NAME": "Knightsbridge and Belgravia", "ORIG_FID": 258 }, "geometry": { "type": "Point", "coordinates": [ -0.16282462090021, 51.512926243653055 ] } },
{ "type": "Feature", "properties": { "ROCQUE_ID": 131.0, "P_NAME": "Tiburn", "NAME": "Little Venice", "ORIG_FID": 259 }, "geometry": { "type": "Point", "coordinates": [ -0.170668299484532, 51.520275052695069 ] } },
{ "type": "Feature", "properties": { "ROCQUE_ID": 132.0, "P_NAME": "Tiburn House", "NAME": "Bryanston and Dorset Square", "ORIG_FID": 260 }, "geometry": { "type": "Point", "coordinates": [ -0.160169599577785, 51.51352888828842 ] } },
{ "type": "Feature", "properties": { "ROCQUE_ID": 133.0, "P_NAME": "Tiburn Lane", "NAME": "Bryanston and Dorset Square", "ORIG_FID": 261 }, "geometry": { "type": "Point", "coordinates": [ -0.1583399004885, 51.513433024403639 ] } },
{ "type": "Feature", "properties": { "ROCQUE_ID": 133.0, "P_NAME": "Tiburn Lane", "NAME": "Knightsbridge and Belgravia", "ORIG_FID": 262 }, "geometry": { "type": "Point", "coordinates": [ -0.156651067780331, 51.510196968505625 ] } },
{ "type": "Feature", "properties": { "ROCQUE_ID": 133.0, "P_NAME": "Tiburn Lane", "NAME": "West End", "ORIG_FID": 263 }, "geometry": { "type": "Point", "coordinates": [ -0.153578712895978, 51.50784001260763 ] } },
{ "type": "Feature", "properties": { "ROCQUE_ID": 137.0, "P_NAME": "Toms Court", "NAME": "West End", "ORIG_FID": 264 }, "geometry": { "type": "Point", "coordinates": [ -0.150422198290471, 51.512959315325134 ] } },
{ "type": "Feature", "properties": { "ROCQUE_ID": 138.0, "P_NAME": "Turnpike", "NAME": "Knightsbridge and Belgravia", "ORIG_FID": 265 }, "geometry": { "type": "Point", "coordinates": [ -0.152515336405486, 51.503028397331946 ] } },
{ "type": "Feature", "properties": { "ROCQUE_ID": 139.0, "P_NAME": "Turnpike", "NAME": "Bryanston and Dorset Square", "ORIG_FID": 266 }, "geometry": { "type": "Point", "coordinates": [ -0.158212434500456, 51.513550188567024 ] } },
{ "type": "Feature", "properties": { "ROCQUE_ID": 140.0, "P_NAME": "Upper Brook Street", "NAME": "West End", "ORIG_FID": 267 }, "geometry": { "type": "Point", "coordinates": [ -0.154951393546071, 51.511405806231778 ] } },
{ "type": "Feature", "properties": { "ROCQUE_ID": 141.0, "P_NAME": "Upper Grosvenor Street", "NAME": "West End", "ORIG_FID": 268 }, "geometry": { "type": "Point", "coordinates": [ -0.154303678951692, 51.510357598250266 ] } },
{ "type": "Feature", "properties": { "ROCQUE_ID": 142.0, "P_NAME": "White Horse Yard", "NAME": "Knightsbridge and Belgravia", "ORIG_FID": 269 }, "geometry": { "type": "Point", "coordinates": [ -0.154798340634443, 51.502288019575644 ] } },
{ "type": "Feature", "properties": { "ROCQUE_ID": 143.0, "P_NAME": "Woods Mewse", "NAME": "West End", "ORIG_FID": 270 }, "geometry": { "type": "Point", "coordinates": [ -0.156229927844834, 51.511717669665813 ] } },
{ "type": "Feature", "properties": { "ROCQUE_ID": 144.0, "P_NAME": "Woodstock Street", "NAME": "West End", "ORIG_FID": 271 }, "geometry": { "type": "Point", "coordinates": [ -0.147372656676453, 51.514132663956843 ] } },
{ "type": "Feature", "properties": { "ROCQUE_ID": 145.0, "P_NAME": "Work House", "NAME": "West End", "ORIG_FID": 272 }, "geometry": { "type": "Point", "coordinates": [ -0.149967845354695, 51.509701320785098 ] } },
{ "type": "Feature", "properties": { "ROCQUE_ID": 146.0, "P_NAME": "Avery Farm", "NAME": "Churchill", "ORIG_FID": 273 }, "geometry": { "type": "Point", "coordinates": [ -0.150389445538167, 51.4917780890828 ] } },
{ "type": "Feature", "properties": { "ROCQUE_ID": 148.0, "P_NAME": "Chelsea Bridge", "NAME": "Warwick", "ORIG_FID": 274 }, "geometry": { "type": "Point", "coordinates": [ -0.149310520384461, 51.490571340022143 ] } },
{ "type": "Feature", "properties": { "ROCQUE_ID": 149.0, "P_NAME": "Chelsea College", "NAME": "Royal Hospital", "ORIG_FID": 275 }, "geometry": { "type": "Point", "coordinates": [ -0.157488233293407, 51.487024080881383 ] } },
{ "type": "Feature", "properties": { "ROCQUE_ID": 150.0, "P_NAME": "Chelsea Road", "NAME": "Churchill", "ORIG_FID": 276 }, "geometry": { "type": "Point", "coordinates": [ -0.148891563701909, 51.491612222860567 ] } },
{ "type": "Feature", "properties": { "ROCQUE_ID": 150.0, "P_NAME": "Chelsea Road", "NAME": "St. James's", "ORIG_FID": 277 }, "geometry": { "type": "Point", "coordinates": [ -0.144396766263526, 51.497417866950855 ] } },
{ "type": "Feature", "properties": { "ROCQUE_ID": 150.0, "P_NAME": "Chelsea Road", "NAME": "Warwick", "ORIG_FID": 278 }, "geometry": { "type": "Point", "coordinates": [ -0.147283553320449, 51.492883187427651 ] } },
{ "type": "Feature", "properties": { "ROCQUE_ID": 152.0, "P_NAME": "College Burying Ground", "NAME": "Churchill", "ORIG_FID": 279 }, "geometry": { "type": "Point", "coordinates": [ -0.155472348094918, 51.489409163245 ] } },
{ "type": "Feature", "properties": { "ROCQUE_ID": 152.0, "P_NAME": "College Burying Ground", "NAME": "Royal Hospital", "ORIG_FID": 280 }, "geometry": { "type": "Point", "coordinates": [ -0.156177949917037, 51.48894069949165 ] } },
{ "type": "Feature", "properties": { "ROCQUE_ID": 153.0, "P_NAME": "The Dukes Hospital", "NAME": "Knightsbridge and Belgravia", "ORIG_FID": 281 }, "geometry": { "type": "Point", "coordinates": [ -0.147828794782981, 51.498368205968291 ] } },
{ "type": "Feature", "properties": { "ROCQUE_ID": 154.0, "P_NAME": "The Five Fields", "NAME": "Churchill", "ORIG_FID": 282 }, "geometry": { "type": "Point", "coordinates": [ -0.151600950630382, 51.492070808482822 ] } },
{ "type": "Feature", "properties": { "ROCQUE_ID": 154.0, "P_NAME": "The Five Fields", "NAME": "Knightsbridge and Belgravia", "ORIG_FID": 283 }, "geometry": { "type": "Point", "coordinates": [ -0.15042781381635, 51.493394838587847 ] } },
{ "type": "Feature", "properties": { "ROCQUE_ID": 154.0, "P_NAME": "The Five Fields", "NAME": "St. James's", "ORIG_FID": 284 }, "geometry": { "type": "Point", "coordinates": [ -0.145838605239987, 51.49769117787946 ] } },
{ "type": "Feature", "properties": { "ROCQUE_ID": 154.0, "P_NAME": "The Five Fields", "NAME": "Warwick", "ORIG_FID": 285 }, "geometry": { "type": "Point", "coordinates": [ -0.147829185472801, 51.495395320758689 ] } },
{ "type": "Feature", "properties": { "ROCQUE_ID": 155.0, "P_NAME": "Five Fields Row", "NAME": "Churchill", "ORIG_FID": 286 }, "geometry": { "type": "Point", "coordinates": [ -0.15251204877859, 51.491283801500686 ] } },
{ "type": "Feature", "properties": { "ROCQUE_ID": 156.0, "P_NAME": "Francklins Row", "NAME": "Royal Hospital", "ORIG_FID": 287 }, "geometry": { "type": "Point", "coordinates": [ -0.15798344637733, 51.48886279866565 ] } },
{ "type": "Feature", "properties": { "ROCQUE_ID": 157.0, "P_NAME": "Gardners Row", "NAME": "Royal Hospital", "ORIG_FID": 288 }, "geometry": { "type": "Point", "coordinates": [ -0.15900109813083, 51.489459505595732 ] } },
{ "type": "Feature", "properties": { "ROCQUE_ID": 158.0, "P_NAME": "Jews Row", "NAME": "Churchill", "ORIG_FID": 289 }, "geometry": { "type": "Point", "coordinates": [ -0.155517112929374, 51.48978827620158 ] } },
{ "type": "Feature", "properties": { "ROCQUE_ID": 158.0, "P_NAME": "Jews Row", "NAME": "Royal Hospital", "ORIG_FID": 290 }, "geometry": { "type": "Point", "coordinates": [ -0.156459167948924, 51.489222821430303 ] } },
{ "type": "Feature", "properties": { "ROCQUE_ID": 161.0, "P_NAME": "Morgans Ground", "NAME": "Royal Hospital", "ORIG_FID": 291 }, "geometry": { "type": "Point", "coordinates": [ -0.156663589412346, 51.489789322949946 ] } },
{ "type": "Feature", "properties": { "ROCQUE_ID": 162.0, "P_NAME": "The Neat Houses", "NAME": "Churchill", "ORIG_FID": 292 }, "geometry": { "type": "Point", "coordinates": [ -0.148220211733133, 51.489782732562162 ] } },
{ "type": "Feature", "properties": { "ROCQUE_ID": 162.0, "P_NAME": "The Neat Houses", "NAME": "Warwick", "ORIG_FID": 293 }, "geometry": { "type": "Point", "coordinates": [ -0.146731913555413, 51.489718864380848 ] } },
{ "type": "Feature", "properties": { "ROCQUE_ID": 164.0, "P_NAME": "Ranelagh Gardens", "NAME": "Royal Hospital", "ORIG_FID": 294 }, "geometry": { "type": "Point", "coordinates": [ -0.154295250482392, 51.487514365522657 ] } },
{ "type": "Feature", "properties": { "ROCQUE_ID": 165.0, "P_NAME": "Strumbelo", "NAME": "Churchill", "ORIG_FID": 295 }, "geometry": { "type": "Point", "coordinates": [ -0.152462119353004, 51.490649773098994 ] } },
{ "type": "Feature", "properties": { "ROCQUE_ID": 165.0, "P_NAME": "Strumbelo", "NAME": "Royal Hospital", "ORIG_FID": 296 }, "geometry": { "type": "Point", "coordinates": [ -0.155244446883444, 51.490081073250622 ] } },
{ "type": "Feature", "properties": { "ROCQUE_ID": 165.0, "P_NAME": "Strumbelo", "NAME": "Warwick", "ORIG_FID": 297 }, "geometry": { "type": "Point", "coordinates": [ -0.149691582017113, 51.490791828662623 ] } },
{ "type": "Feature", "properties": { "ROCQUE_ID": 166.0, "P_NAME": "Turks Row", "NAME": "Royal Hospital", "ORIG_FID": 298 }, "geometry": { "type": "Point", "coordinates": [ -0.157710697327275, 51.489752483787015 ] } },
{ "type": "Feature", "properties": { "ROCQUE_ID": 167.0, "P_NAME": "Wilderness Row", "NAME": "Churchill", "ORIG_FID": 299 }, "geometry": { "type": "Point", "coordinates": [ -0.154216323106084, 51.489353981975 ] } },
{ "type": "Feature", "properties": { "ROCQUE_ID": 168.0, "P_NAME": "Adam and Eve Court", "NAME": "West End", "ORIG_FID": 300 }, "geometry": { "type": "Point", "coordinates": [ -0.137558646849357, 51.516244358557742 ] } },
{ "type": "Feature", "properties": { "ROCQUE_ID": 169.0, "P_NAME": "Allens Court", "NAME": "West End", "ORIG_FID": 301 }, "geometry": { "type": "Point", "coordinates": [ -0.135300148744136, 51.515589702641591 ] } },
{ "type": "Feature", "properties": { "ROCQUE_ID": 170.0, "P_NAME": "Angel Hill", "NAME": "St. James's", "ORIG_FID": 302 }, "geometry": { "type": "Point", "coordinates": [ -0.131269592209719, 51.511957728071138 ] } },
{ "type": "Feature", "properties": { "ROCQUE_ID": 170.0, "P_NAME": "Angel Hill", "NAME": "West End", "ORIG_FID": 303 }, "geometry": { "type": "Point", "coordinates": [ -0.132838100485969, 51.514153281692415 ] } },
{ "type": "Feature", "properties": { "ROCQUE_ID": 171.0, "P_NAME": "Balsover Street", "NAME": "West End", "ORIG_FID": 304 }, "geometry": { "type": "Point", "coordinates": [ -0.142107347841375, 51.515613362658769 ] } },
{ "type": "Feature", "properties": { "ROCQUE_ID": 172.0, "P_NAME": "Banbridge Street", "NAME": "Bloomsbury", "ORIG_FID": 305 }, "geometry": { "type": "Point", "coordinates": [ -0.128960822767112, 51.516880719864275 ] } },
{ "type": "Feature", "properties": { "ROCQUE_ID": 173.0, "P_NAME": "Berners Street", "NAME": "West End", "ORIG_FID": 306 }, "geometry": { "type": "Point", "coordinates": [ -0.136235208075959, 51.516455626348034 ] } },
{ "type": "Feature", "properties": { "ROCQUE_ID": 174.0, "P_NAME": "Berwick Street", "NAME": "West End", "ORIG_FID": 307 }, "geometry": { "type": "Point", "coordinates": [ -0.135466063744389, 51.514227269100957 ] } },
{ "type": "Feature", "properties": { "ROCQUE_ID": 175.0, "P_NAME": "Bilsons Farm", "NAME": "Marylebone High Street", "ORIG_FID": 308 }, "geometry": { "type": "Point", "coordinates": [ -0.143586293270346, 51.524525906599592 ] } },
{ "type": "Feature", "properties": { "ROCQUE_ID": 175.0, "P_NAME": "Bilsons Farm", "NAME": "Regent's Park", "ORIG_FID": 309 }, "geometry": { "type": "Point", "coordinates": [ -0.143175946956035, 51.524636911984999 ] } },
{ "type": "Feature", "properties": { "ROCQUE_ID": 176.0, "P_NAME": "Bingley House", "NAME": "Marylebone High Street", "ORIG_FID": 310 }, "geometry": { "type": "Point", "coordinates": [ -0.146209041529801, 51.516327768331394 ] } },
{ "type": "Feature", "properties": { "ROCQUE_ID": 177.0, "P_NAME": "Black Horse Stable Yard", "NAME": "West End", "ORIG_FID": 311 }, "geometry": { "type": "Point", "coordinates": [ -0.132917464652564, 51.516797181800939 ] } },
{ "type": "Feature", "properties": { "ROCQUE_ID": 178.0, "P_NAME": "Black Horse Yard", "NAME": "Bloomsbury", "ORIG_FID": 312 }, "geometry": { "type": "Point", "coordinates": [ -0.132037098752335, 51.517498039582279 ] } },
{ "type": "Feature", "properties": { "ROCQUE_ID": 179.0, "P_NAME": "Blenheim Mewse", "NAME": "West End", "ORIG_FID": 313 }, "geometry": { "type": "Point", "coordinates": [ -0.13895062787924, 51.515015458979178 ] } },
{ "type": "Feature", "properties": { "ROCQUE_ID": 180.0, "P_NAME": "Blue Boar Inn", "NAME": "West End", "ORIG_FID": 314 }, "geometry": { "type": "Point", "coordinates": [ -0.13120851496933, 51.516683156602085 ] } },
{ "type": "Feature", "properties": { "ROCQUE_ID": 181.0, "P_NAME": "Brew House", "NAME": "Bloomsbury", "ORIG_FID": 315 }, "geometry": { "type": "Point", "coordinates": [ -0.12943381362129, 51.516961532353889 ] } },
{ "type": "Feature", "properties": { "ROCQUE_ID": 182.0, "P_NAME": "Brewers Court", "NAME": "West End", "ORIG_FID": 316 }, "geometry": { "type": "Point", "coordinates": [ -0.132342816796154, 51.516042177041527 ] } },
{ "type": "Feature", "properties": { "ROCQUE_ID": 183.0, "P_NAME": "Buckridge Street", "NAME": "Bloomsbury", "ORIG_FID": 317 }, "geometry": { "type": "Point", "coordinates": [ -0.127892244141549, 51.516831669083331 ] } },
{ "type": "Feature", "properties": { "ROCQUE_ID": 183.0, "P_NAME": "Buckridge Street", "NAME": "Holborn and Covent Garden", "ORIG_FID": 318 }, "geometry": { "type": "Point", "coordinates": [ -0.128703932277858, 51.516414370329585 ] } },
{ "type": "Feature", "properties": { "ROCQUE_ID": 184.0, "P_NAME": "Castle Street", "NAME": "West End", "ORIG_FID": 319 }, "geometry": { "type": "Point", "coordinates": [ -0.142049854213838, 51.515939992037602 ] } },
{ "type": "Feature", "properties": { "ROCQUE_ID": 186.0, "P_NAME": "Cavendish Square", "NAME": "Marylebone High Street", "ORIG_FID": 320 }, "geometry": { "type": "Point", "coordinates": [ -0.145506012369879, 51.515981087228283 ] } },
{ "type": "Feature", "properties": { "ROCQUE_ID": 186.0, "P_NAME": "Cavendish Square", "NAME": "West End", "ORIG_FID": 321 }, "geometry": { "type": "Point", "coordinates": [ -0.144975948438514, 51.516525692597497 ] } },
{ "type": "Feature", "properties": { "ROCQUE_ID": 187.0, "P_NAME": "Cavendish Street", "NAME": "West End", "ORIG_FID": 322 }, "geometry": { "type": "Point", "coordinates": [ -0.145956003048923, 51.515333140036091 ] } },
{ "type": "Feature", "properties": { "ROCQUE_ID": 189.0, "P_NAME": "Charles Street", "NAME": "West End", "ORIG_FID": 323 }, "geometry": { "type": "Point", "coordinates": [ -0.13264036772307, 51.515946068160702 ] } },
{ "type": "Feature", "properties": { "ROCQUE_ID": 190.0, "P_NAME": "Church Lane", "NAME": "Bloomsbury", "ORIG_FID": 324 }, "geometry": { "type": "Point", "coordinates": [ -0.129266182135325, 51.516648632357828 ] } },
{ "type": "Feature", "properties": { "ROCQUE_ID": 190.0, "P_NAME": "Church Lane", "NAME": "Holborn and Covent Garden", "ORIG_FID": 325 }, "geometry": { "type": "Point", "coordinates": [ -0.128786646644585, 51.516338038665708 ] } },
{ "type": "Feature", "properties": { "ROCQUE_ID": 191.0, "P_NAME": "Coach and Horses Yard", "NAME": "West End", "ORIG_FID": 326 }, "geometry": { "type": "Point", "coordinates": [ -0.139102330373134, 51.515843922796194 ] } },
{ "type": "Feature", "properties": { "ROCQUE_ID": 192.0, "P_NAME": "Crown Court", "NAME": "West End", "ORIG_FID": 327 }, "geometry": { "type": "Point", "coordinates": [ -0.133945303678047, 51.515255096252076 ] } },
{ "type": "Feature", "properties": { "ROCQUE_ID": 193.0, "P_NAME": "Falconbridge Court", "NAME": "West End", "ORIG_FID": 328 }, "geometry": { "type": "Point", "coordinates": [ -0.131167906918563, 51.515940073295496 ] } },
{ "type": "Feature", "properties": { "ROCQUE_ID": 194.0, "P_NAME": "Farmers Alley", "NAME": "Holborn and Covent Garden", "ORIG_FID": 329 }, "geometry": { "type": "Point", "coordinates": [ -0.130046685691923, 51.515897935896646 ] } },
{ "type": "Feature", "properties": { "ROCQUE_ID": 195.0, "P_NAME": "Farthing Pye House", "NAME": "Bloomsbury", "ORIG_FID": 330 }, "geometry": { "type": "Point", "coordinates": [ -0.143467456568033, 51.523920488660224 ] } },
{ "type": "Feature", "properties": { "ROCQUE_ID": 195.0, "P_NAME": "Farthing Pye House", "NAME": "Marylebone High Street", "ORIG_FID": 331 }, "geometry": { "type": "Point", "coordinates": [ -0.143477111414541, 51.523879070125986 ] } },
{ "type": "Feature", "properties": { "ROCQUE_ID": 196.0, "P_NAME": "Godwins Court", "NAME": "West End", "ORIG_FID": 332 }, "geometry": { "type": "Point", "coordinates": [ -0.130997776752338, 51.51615774288075 ] } },
{ "type": "Feature", "properties": { "ROCQUE_ID": 197.0, "P_NAME": "Great Chapel Street", "NAME": "West End", "ORIG_FID": 333 }, "geometry": { "type": "Point", "coordinates": [ -0.134321952413302, 51.51541204797104 ] } },
{ "type": "Feature", "properties": { "ROCQUE_ID": 198.0, "P_NAME": "Green Lane (The)", "NAME": "Bloomsbury", "ORIG_FID": 334 }, "geometry": { "type": "Point", "coordinates": [ -0.138680439791642, 51.520467368827667 ] } },
{ "type": "Feature", "properties": { "ROCQUE_ID": 198.0, "P_NAME": "Green Lane (The)", "NAME": "Marylebone High Street", "ORIG_FID": 335 }, "geometry": { "type": "Point", "coordinates": [ -0.142108650004957, 51.522736160841305 ] } },
{ "type": "Feature", "properties": { "ROCQUE_ID": 198.0, "P_NAME": "Green Lane (The)", "NAME": "Regent's Park", "ORIG_FID": 336 }, "geometry": { "type": "Point", "coordinates": [ -0.14549230132252, 51.526069664687384 ] } },
{ "type": "Feature", "properties": { "ROCQUE_ID": 198.0, "P_NAME": "Green Lane (The)", "NAME": "West End", "ORIG_FID": 337 }, "geometry": { "type": "Point", "coordinates": [ -0.138640943157952, 51.520346284960397 ] } },
{ "type": "Feature", "properties": { "ROCQUE_ID": 199.0, "P_NAME": "Grenadiers Mews", "NAME": "West End", "ORIG_FID": 338 }, "geometry": { "type": "Point", "coordinates": [ -0.14223231957294, 51.517907853994984 ] } },
{ "type": "Feature", "properties": { "ROCQUE_ID": 200.0, "P_NAME": "Hanway Street", "NAME": "West End", "ORIG_FID": 339 }, "geometry": { "type": "Point", "coordinates": [ -0.131771614134777, 51.516847734339535 ] } },
{ "type": "Feature", "properties": { "ROCQUE_ID": 201.0, "P_NAME": "High Street", "NAME": "Holborn and Covent Garden", "ORIG_FID": 340 }, "geometry": { "type": "Point", "coordinates": [ -0.129474489251152, 51.516016993089579 ] } },
{ "type": "Feature", "properties": { "ROCQUE_ID": 202.0, "P_NAME": "Hog Lane", "NAME": "Holborn and Covent Garden", "ORIG_FID": 341 }, "geometry": { "type": "Point", "coordinates": [ -0.129896545025986, 51.515018558711745 ] } },
{ "type": "Feature", "properties": { "ROCQUE_ID": 202.0, "P_NAME": "Hog Lane", "NAME": "St. James's", "ORIG_FID": 342 }, "geometry": { "type": "Point", "coordinates": [ -0.129086723027285, 51.513312411902007 ] } },
{ "type": "Feature", "properties": { "ROCQUE_ID": 202.0, "P_NAME": "Hog Lane", "NAME": "West End", "ORIG_FID": 343 }, "geometry": { "type": "Point", "coordinates": [ -0.129441634693649, 51.513653892092407 ] } },
{ "type": "Feature", "properties": { "ROCQUE_ID": 203.0, "P_NAME": "Holland Street", "NAME": "West End", "ORIG_FID": 344 }, "geometry": { "type": "Point", "coordinates": [ -0.134884755592793, 51.515459665795788 ] } },
{ "type": "Feature", "properties": { "ROCQUE_ID": 204.0, "P_NAME": "Holles Street", "NAME": "West End", "ORIG_FID": 345 }, "geometry": { "type": "Point", "coordinates": [ -0.144559206324629, 51.515521118708421 ] } },
{ "type": "Feature", "properties": { "ROCQUE_ID": 205.0, "P_NAME": "Johns Court", "NAME": "Bloomsbury", "ORIG_FID": 346 }, "geometry": { "type": "Point", "coordinates": [ -0.13175860705087, 51.517229538992979 ] } },
{ "type": "Feature", "properties": { "ROCQUE_ID": 206.0, "P_NAME": "King Square (Soho Square)", "NAME": "West End", "ORIG_FID": 347 }, "geometry": { "type": "Point", "coordinates": [ -0.132192956225481, 51.515292869880795 ] } },
{ "type": "Feature", "properties": { "ROCQUE_ID": 207.0, "P_NAME": "Life Guard Yard", "NAME": "West End", "ORIG_FID": 348 }, "geometry": { "type": "Point", "coordinates": [ -0.138226363342255, 51.516303487238474 ] } },
{ "type": "Feature", "properties": { "ROCQUE_ID": 208.0, "P_NAME": "Little Castle Street", "NAME": "West End", "ORIG_FID": 349 }, "geometry": { "type": "Point", "coordinates": [ -0.13843233557418, 51.5165640822961 ] } },
{ "type": "Feature", "properties": { "ROCQUE_ID": 210.0, "P_NAME": "Margaret Street", "NAME": "West End", "ORIG_FID": 350 }, "geometry": { "type": "Point", "coordinates": [ -0.140911593800411, 51.516712753858883 ] } },
{ "type": "Feature", "properties": { "ROCQUE_ID": 211.0, "P_NAME": "Margarets Alley", "NAME": "West End", "ORIG_FID": 351 }, "geometry": { "type": "Point", "coordinates": [ -0.140585926303174, 51.51648667093832 ] } },
{ "type": "Feature", "properties": { "ROCQUE_ID": 212.0, "P_NAME": "Market Court", "NAME": "West End", "ORIG_FID": 352 }, "geometry": { "type": "Point", "coordinates": [ -0.139960528467782, 51.515733424632344 ] } },
{ "type": "Feature", "properties": { "ROCQUE_ID": 213.0, "P_NAME": "Market Street", "NAME": "West End", "ORIG_FID": 353 }, "geometry": { "type": "Point", "coordinates": [ -0.139512198104057, 51.516084680624772 ] } },
{ "type": "Feature", "properties": { "ROCQUE_ID": 214.0, "P_NAME": "Mary Bone Place", "NAME": "West End", "ORIG_FID": 354 }, "geometry": { "type": "Point", "coordinates": [ -0.138509430980776, 51.517652239650488 ] } },
{ "type": "Feature", "properties": { "ROCQUE_ID": 215.0, "P_NAME": "Marybone Bason", "NAME": "Marylebone High Street", "ORIG_FID": 355 }, "geometry": { "type": "Point", "coordinates": [ -0.146439870935865, 51.519896470417734 ] } },
{ "type": "Feature", "properties": { "ROCQUE_ID": 215.0, "P_NAME": "Marybone Bason", "NAME": "West End", "ORIG_FID": 356 }, "geometry": { "type": "Point", "coordinates": [ -0.146028505405411, 51.518924031523056 ] } },
{ "type": "Feature", "properties": { "ROCQUE_ID": 216.0, "P_NAME": "Marybone Passage", "NAME": "West End", "ORIG_FID": 357 }, "geometry": { "type": "Point", "coordinates": [ -0.135713327501435, 51.516764513449743 ] } },
{ "type": "Feature", "properties": { "ROCQUE_ID": 217.0, "P_NAME": "Maynard Street", "NAME": "Bloomsbury", "ORIG_FID": 358 }, "geometry": { "type": "Point", "coordinates": [ -0.129754304070957, 51.516538578784093 ] } },
{ "type": "Feature", "properties": { "ROCQUE_ID": 217.0, "P_NAME": "Maynard Street", "NAME": "Holborn and Covent Garden", "ORIG_FID": 359 }, "geometry": { "type": "Point", "coordinates": [ -0.12947271799203, 51.516339706198778 ] } },
{ "type": "Feature", "properties": { "ROCQUE_ID": 218.0, "P_NAME": "Merchants Water Works", "NAME": "Bloomsbury", "ORIG_FID": 360 }, "geometry": { "type": "Point", "coordinates": [ -0.134311663743574, 51.517932116053998 ] } },
{ "type": "Feature", "properties": { "ROCQUE_ID": 218.0, "P_NAME": "Merchants Water Works", "NAME": "West End", "ORIG_FID": 361 }, "geometry": { "type": "Point", "coordinates": [ -0.135243198776152, 51.518271728011314 ] } },
{ "type": "Feature", "properties": { "ROCQUE_ID": 219.0, "P_NAME": "Middlesex County Hospital", "NAME": "Bloomsbury", "ORIG_FID": 362 }, "geometry": { "type": "Point", "coordinates": [ -0.134179973741993, 51.518589227693155 ] } },
{ "type": "Feature", "properties": { "ROCQUE_ID": 220.0, "P_NAME": "Middlesex Hospital", "NAME": "Bloomsbury", "ORIG_FID": 363 }, "geometry": { "type": "Point", "coordinates": [ -0.133729861292522, 51.518767966248561 ] } },
{ "type": "Feature", "properties": { "ROCQUE_ID": 221.0, "P_NAME": "Mortimer Street", "NAME": "West End", "ORIG_FID": 364 }, "geometry": { "type": "Point", "coordinates": [ -0.143038025067654, 51.517338714445941 ] } },
{ "type": "Feature", "properties": { "ROCQUE_ID": 222.0, "P_NAME": "Nags Head Stables", "NAME": "West End", "ORIG_FID": 365 }, "geometry": { "type": "Point", "coordinates": [ -0.139665250841063, 51.515147577680182 ] } },
{ "type": "Feature", "properties": { "ROCQUE_ID": 223.0, "P_NAME": "New Queen Street", "NAME": "West End", "ORIG_FID": 366 }, "geometry": { "type": "Point", "coordinates": [ -0.140210338402539, 51.515111691085622 ] } },
{ "type": "Feature", "properties": { "ROCQUE_ID": 224.0, "P_NAME": "Ogle Street", "NAME": "West End", "ORIG_FID": 367 }, "geometry": { "type": "Point", "coordinates": [ -0.142655328905676, 51.516752570401877 ] } },
{ "type": "Feature", "properties": { "ROCQUE_ID": 225.0, "P_NAME": "Oxford Market", "NAME": "West End", "ORIG_FID": 368 }, "geometry": { "type": "Point", "coordinates": [ -0.140208488272037, 51.516099577362183 ] } },
{ "type": "Feature", "properties": { "ROCQUE_ID": 226.0, "P_NAME": "Oxford Street", "NAME": "Bloomsbury", "ORIG_FID": 369 }, "geometry": { "type": "Point", "coordinates": [ -0.13025665585883, 51.516492880124133 ] } },
{ "type": "Feature", "properties": { "ROCQUE_ID": 226.0, "P_NAME": "Oxford Street", "NAME": "Bryanston and Dorset Square", "ORIG_FID": 370 }, "geometry": { "type": "Point", "coordinates": [ -0.15817395108752, 51.513504244212527 ] } },
{ "type": "Feature", "properties": { "ROCQUE_ID": 226.0, "P_NAME": "Oxford Street", "NAME": "Holborn and Covent Garden", "ORIG_FID": 371 }, "geometry": { "type": "Point", "coordinates": [ -0.130292235815432, 51.516401863831561 ] } },
{ "type": "Feature", "properties": { "ROCQUE_ID": 226.0, "P_NAME": "Oxford Street", "NAME": "Knightsbridge and Belgravia", "ORIG_FID": 372 }, "geometry": { "type": "Point", "coordinates": [ -0.159133131441195, 51.513294289761689 ] } },
{ "type": "Feature", "properties": { "ROCQUE_ID": 226.0, "P_NAME": "Oxford Street", "NAME": "Marylebone High Street", "ORIG_FID": 373 }, "geometry": { "type": "Point", "coordinates": [ -0.151620146585628, 51.514188720146194 ] } },
{ "type": "Feature", "properties": { "ROCQUE_ID": 226.0, "P_NAME": "Oxford Street", "NAME": "West End", "ORIG_FID": 374 }, "geometry": { "type": "Point", "coordinates": [ -0.14427867095219, 51.514986377675086 ] } },
{ "type": "Feature", "properties": { "ROCQUE_ID": 227.0, "P_NAME": "Paradise Row", "NAME": "Bloomsbury", "ORIG_FID": 375 }, "geometry": { "type": "Point", "coordinates": [ -0.136135919485241, 51.521446226222906 ] } },
{ "type": "Feature", "properties": { "ROCQUE_ID": 228.0, "P_NAME": "Petty Court", "NAME": "Bloomsbury", "ORIG_FID": 376 }, "geometry": { "type": "Point", "coordinates": [ -0.132108675083145, 51.516952303529251 ] } },
{ "type": "Feature", "properties": { "ROCQUE_ID": 228.0, "P_NAME": "Petty Court", "NAME": "West End", "ORIG_FID": 377 }, "geometry": { "type": "Point", "coordinates": [ -0.132497919839807, 51.516741830680985 ] } },
{ "type": "Feature", "properties": { "ROCQUE_ID": 229.0, "P_NAME": "Ph and oelig nix Yard", "NAME": "West End", "ORIG_FID": 378 }, "geometry": { "type": "Point", "coordinates": [ -0.143930826510768, 51.515608118439559 ] } },
{ "type": "Feature", "properties": { "ROCQUE_ID": 230.0, "P_NAME": "Poland Yard", "NAME": "West End", "ORIG_FID": 379 }, "geometry": { "type": "Point", "coordinates": [ -0.137833737302572, 51.515534859674517 ] } },
{ "type": "Feature", "properties": { "ROCQUE_ID": 231.0, "P_NAME": "Portland Street", "NAME": "West End", "ORIG_FID": 380 }, "geometry": { "type": "Point", "coordinates": [ -0.141296701389365, 51.51689575240016 ] } },
{ "type": "Feature", "properties": { "ROCQUE_ID": 232.0, "P_NAME": "Portland Street (Little)", "NAME": "West End", "ORIG_FID": 381 }, "geometry": { "type": "Point", "coordinates": [ -0.14207291562343, 51.517010671726894 ] } },
{ "type": "Feature", "properties": { "ROCQUE_ID": 233.0, "P_NAME": "Pound", "NAME": "Bloomsbury", "ORIG_FID": 382 }, "geometry": { "type": "Point", "coordinates": [ -0.132318786054384, 51.518783597333822 ] } },
{ "type": "Feature", "properties": { "ROCQUE_ID": 234.0, "P_NAME": "Princes Street", "NAME": "West End", "ORIG_FID": 383 }, "geometry": { "type": "Point", "coordinates": [ -0.143115391780157, 51.515770935162436 ] } },
{ "type": "Feature", "properties": { "ROCQUE_ID": 236.0, "P_NAME": "Queens Head", "NAME": "Regent's Park", "ORIG_FID": 384 }, "geometry": { "type": "Point", "coordinates": [ -0.145885040110443, 51.526101385708898 ] } },
{ "type": "Feature", "properties": { "ROCQUE_ID": 237.0, "P_NAME": "Rathbone Place", "NAME": "Bloomsbury", "ORIG_FID": 385 }, "geometry": { "type": "Point", "coordinates": [ -0.134130141756032, 51.517702823330183 ] } },
{ "type": "Feature", "properties": { "ROCQUE_ID": 237.0, "P_NAME": "Rathbone Place", "NAME": "West End", "ORIG_FID": 386 }, "geometry": { "type": "Point", "coordinates": [ -0.133497713657562, 51.516974541067611 ] } },
{ "type": "Feature", "properties": { "ROCQUE_ID": 238.0, "P_NAME": "Red Lyon Inn", "NAME": "Bloomsbury", "ORIG_FID": 387 }, "geometry": { "type": "Point", "coordinates": [ -0.133716347452719, 51.519322165346239 ] } },
{ "type": "Feature", "properties": { "ROCQUE_ID": 239.0, "P_NAME": "Red Lyon Yard", "NAME": "West End", "ORIG_FID": 388 }, "geometry": { "type": "Point", "coordinates": [ -0.145402045338415, 51.515333221817855 ] } },
{ "type": "Feature", "properties": { "ROCQUE_ID": 240.0, "P_NAME": "Soho Square", "NAME": "West End", "ORIG_FID": 389 }, "geometry": { "type": "Point", "coordinates": [ -0.132662517891731, 51.515028761874419 ] } },
{ "type": "Feature", "properties": { "ROCQUE_ID": 241.0, "P_NAME": "Stable", "NAME": "West End", "ORIG_FID": 390 }, "geometry": { "type": "Point", "coordinates": [ -0.140689991530962, 51.515162172843702 ] } },
{ "type": "Feature", "properties": { "ROCQUE_ID": 242.0, "P_NAME": "Stable Yard", "NAME": "West End", "ORIG_FID": 391 }, "geometry": { "type": "Point", "coordinates": [ -0.13885512802517, 51.515378218318801 ] } },
{ "type": "Feature", "properties": { "ROCQUE_ID": 243.0, "P_NAME": "Stable Yard", "NAME": "West End", "ORIG_FID": 392 }, "geometry": { "type": "Point", "coordinates": [ -0.137762922386173, 51.516035366163123 ] } },
{ "type": "Feature", "properties": { "ROCQUE_ID": 244.0, "P_NAME": "Stable Yard", "NAME": "West End", "ORIG_FID": 393 }, "geometry": { "type": "Point", "coordinates": [ -0.133835447195452, 51.516349011159036 ] } },
{ "type": "Feature", "properties": { "ROCQUE_ID": 245.0, "P_NAME": "Stable Yard", "NAME": "Bloomsbury", "ORIG_FID": 394 }, "geometry": { "type": "Point", "coordinates": [ -0.133453848946374, 51.518491843075026 ] } },
{ "type": "Feature", "properties": { "ROCQUE_ID": 246.0, "P_NAME": "Stable Yard", "NAME": "West End", "ORIG_FID": 395 }, "geometry": { "type": "Point", "coordinates": [ -0.133261874318123, 51.515994559973478 ] } },
{ "type": "Feature", "properties": { "ROCQUE_ID": 247.0, "P_NAME": "Sutton Street", "NAME": "West End", "ORIG_FID": 396 }, "geometry": { "type": "Point", "coordinates": [ -0.130974881234579, 51.515634859795682 ] } },
{ "type": "Feature", "properties": { "ROCQUE_ID": 248.0, "P_NAME": "Timber Yard", "NAME": "West End", "ORIG_FID": 397 }, "geometry": { "type": "Point", "coordinates": [ -0.137012801598758, 51.515460654336493 ] } },
{ "type": "Feature", "properties": { "ROCQUE_ID": 249.0, "P_NAME": "Timber Yard", "NAME": "Bloomsbury", "ORIG_FID": 398 }, "geometry": { "type": "Point", "coordinates": [ -0.131817621761002, 51.519224088639021 ] } },
{ "type": "Feature", "properties": { "ROCQUE_ID": 250.0, "P_NAME": "Titchfield Street", "NAME": "West End", "ORIG_FID": 399 }, "geometry": { "type": "Point", "coordinates": [ -0.140119288058486, 51.51751001633238 ] } },
{ "type": "Feature", "properties": { "ROCQUE_ID": 251.0, "P_NAME": "Titchfield Street", "NAME": "West End", "ORIG_FID": 400 }, "geometry": { "type": "Point", "coordinates": [ -0.134113116597291, 51.515492770005949 ] } },
{ "type": "Feature", "properties": { "ROCQUE_ID": 252.0, "P_NAME": "Tottenham Court (Road)", "NAME": "Bloomsbury", "ORIG_FID": 401 }, "geometry": { "type": "Point", "coordinates": [ -0.137798815150745, 51.524388349149376 ] } },
{ "type": "Feature", "properties": { "ROCQUE_ID": 252.0, "P_NAME": "Tottenham Court (Road)", "NAME": "Regent's Park", "ORIG_FID": 402 }, "geometry": { "type": "Point", "coordinates": [ -0.138588364468887, 51.525776315014809 ] } },
{ "type": "Feature", "properties": { "ROCQUE_ID": 253.0, "P_NAME": "Tottenham Court Alley", "NAME": "West End", "ORIG_FID": 403 }, "geometry": { "type": "Point", "coordinates": [ -0.130618843075354, 51.516652109508868 ] } },
{ "type": "Feature", "properties": { "ROCQUE_ID": 254.0, "P_NAME": "Tottenham Court Road", "NAME": "Bloomsbury", "ORIG_FID": 404 }, "geometry": { "type": "Point", "coordinates": [ -0.133825228200294, 51.520136300416198 ] } },
{ "type": "Feature", "properties": { "ROCQUE_ID": 254.0, "P_NAME": "Tottenham Court Road", "NAME": "Holborn and Covent Garden", "ORIG_FID": 405 }, "geometry": { "type": "Point", "coordinates": [ -0.130257437995169, 51.516428730916232 ] } },
{ "type": "Feature", "properties": { "ROCQUE_ID": 254.0, "P_NAME": "Tottenham Court Road", "NAME": "West End", "ORIG_FID": 406 }, "geometry": { "type": "Point", "coordinates": [ -0.130681133305188, 51.516844156314619 ] } },
{ "type": "Feature", "properties": { "ROCQUE_ID": 255.0, "P_NAME": "Turnpike", "NAME": "Bloomsbury", "ORIG_FID": 407 }, "geometry": { "type": "Point", "coordinates": [ -0.138247760478407, 51.524880456912797 ] } },
{ "type": "Feature", "properties": { "ROCQUE_ID": 256.0, "P_NAME": "Unicorn Stable Yard", "NAME": "West End", "ORIG_FID": 408 }, "geometry": { "type": "Point", "coordinates": [ -0.141209748166148, 51.515814960352145 ] } },
{ "type": "Feature", "properties": { "ROCQUE_ID": 258.0, "P_NAME": "Wardour Street", "NAME": "West End", "ORIG_FID": 409 }, "geometry": { "type": "Point", "coordinates": [ -0.134603760379832, 51.5142905410612 ] } },
{ "type": "Feature", "properties": { "ROCQUE_ID": 259.0, "P_NAME": "Well Yard", "NAME": "Bloomsbury", "ORIG_FID": 410 }, "geometry": { "type": "Point", "coordinates": [ -0.12988144782139, 51.516728628659621 ] } },
{ "type": "Feature", "properties": { "ROCQUE_ID": 260.0, "P_NAME": "White Horse Inn", "NAME": "West End", "ORIG_FID": 411 }, "geometry": { "type": "Point", "coordinates": [ -0.134352394496091, 51.515891602030024 ] } },
{ "type": "Feature", "properties": { "ROCQUE_ID": 261.0, "P_NAME": "Windmill Street", "NAME": "Bloomsbury", "ORIG_FID": 412 }, "geometry": { "type": "Point", "coordinates": [ -0.133887180651072, 51.518813031725585 ] } },
{ "type": "Feature", "properties": { "ROCQUE_ID": 262.0, "P_NAME": "Winsley Street", "NAME": "West End", "ORIG_FID": 413 }, "geometry": { "type": "Point", "coordinates": [ -0.138601072889287, 51.516100197739433 ] } },
{ "type": "Feature", "properties": { "ROCQUE_ID": 263.0, "P_NAME": "Woods Court", "NAME": "West End", "ORIG_FID": 414 }, "geometry": { "type": "Point", "coordinates": [ -0.138778746710159, 51.515936501964461 ] } },
{ "type": "Feature", "properties": { "ROCQUE_ID": 265.0, "P_NAME": "Albemarle Mewse", "NAME": "West End", "ORIG_FID": 415 }, "geometry": { "type": "Point", "coordinates": [ -0.143614752101712, 51.50952897395473 ] } },
{ "type": "Feature", "properties": { "ROCQUE_ID": 266.0, "P_NAME": "Albemarle Street", "NAME": "West End", "ORIG_FID": 416 }, "geometry": { "type": "Point", "coordinates": [ -0.141874350665603, 51.509011441783514 ] } },
{ "type": "Feature", "properties": { "ROCQUE_ID": 267.0, "P_NAME": "Angel Court", "NAME": "St. James's", "ORIG_FID": 417 }, "geometry": { "type": "Point", "coordinates": [ -0.137469256413169, 51.506139291450381 ] } },
{ "type": "Feature", "properties": { "ROCQUE_ID": 268.0, "P_NAME": "Angel Court", "NAME": "St. James's", "ORIG_FID": 418 }, "geometry": { "type": "Point", "coordinates": [ -0.134027713385876, 51.510530784376897 ] } },
{ "type": "Feature", "properties": { "ROCQUE_ID": 268.0, "P_NAME": "Angel Court", "NAME": "West End", "ORIG_FID": 419 }, "geometry": { "type": "Point", "coordinates": [ -0.134278185316361, 51.510517245333176 ] } },
{ "type": "Feature", "properties": { "ROCQUE_ID": 269.0, "P_NAME": "Angel Court", "NAME": "St. James's", "ORIG_FID": 420 }, "geometry": { "type": "Point", "coordinates": [ -0.129117232281715, 51.500782557937782 ] } },
{ "type": "Feature", "properties": { "ROCQUE_ID": 270.0, "P_NAME": "Angel Inn", "NAME": "West End", "ORIG_FID": 421 }, "geometry": { "type": "Point", "coordinates": [ -0.136634796857834, 51.509235691803042 ] } },
{ "type": "Feature", "properties": { "ROCQUE_ID": 271.0, "P_NAME": "Apple-tree Yard", "NAME": "St. James's", "ORIG_FID": 422 }, "geometry": { "type": "Point", "coordinates": [ -0.13580691954121, 51.508387958165258 ] } },
{ "type": "Feature", "properties": { "ROCQUE_ID": 272.0, "P_NAME": "Archer Street", "NAME": "West End", "ORIG_FID": 423 }, "geometry": { "type": "Point", "coordinates": [ -0.133879361092113, 51.511597085685935 ] } },
{ "type": "Feature", "properties": { "ROCQUE_ID": 273.0, "P_NAME": "Argyle Street", "NAME": "West End", "ORIG_FID": 424 }, "geometry": { "type": "Point", "coordinates": [ -0.140776223677676, 51.514645399933215 ] } },
{ "type": "Feature", "properties": { "ROCQUE_ID": 275.0, "P_NAME": "Arlington Street", "NAME": "St. James's", "ORIG_FID": 425 }, "geometry": { "type": "Point", "coordinates": [ -0.140820721746422, 51.506939401268028 ] } },
{ "type": "Feature", "properties": { "ROCQUE_ID": 276.0, "P_NAME": "Avery Row", "NAME": "West End", "ORIG_FID": 426 }, "geometry": { "type": "Point", "coordinates": [ -0.14544486469822, 51.512385046808049 ] } },
{ "type": "Feature", "properties": { "ROCQUE_ID": 277.0, "P_NAME": "Babmays Mewse", "NAME": "St. James's", "ORIG_FID": 427 }, "geometry": { "type": "Point", "coordinates": [ -0.134788821800612, 51.50842174643185 ] } },
{ "type": "Feature", "properties": { "ROCQUE_ID": 278.0, "P_NAME": "Bakers Passage", "NAME": "St. James's", "ORIG_FID": 428 }, "geometry": { "type": "Point", "coordinates": [ -0.134554110874888, 51.509430581121705 ] } },
{ "type": "Feature", "properties": { "ROCQUE_ID": 279.0, "P_NAME": "Beak Street", "NAME": "West End", "ORIG_FID": 429 }, "geometry": { "type": "Point", "coordinates": [ -0.137714623007923, 51.512302749673836 ] } },
{ "type": "Feature", "properties": { "ROCQUE_ID": 280.0, "P_NAME": "Bear Street", "NAME": "St. James's", "ORIG_FID": 430 }, "geometry": { "type": "Point", "coordinates": [ -0.128924061602447, 51.510975984390825 ] } },
{ "type": "Feature", "properties": { "ROCQUE_ID": 281.0, "P_NAME": "Bearbone Square", "NAME": "St. James's", "ORIG_FID": 431 }, "geometry": { "type": "Point", "coordinates": [ -0.129546347307041, 51.512089270167053 ] } },
{ "type": "Feature", "properties": { "ROCQUE_ID": 282.0, "P_NAME": "Bell Inn", "NAME": "St. James's", "ORIG_FID": 432 }, "geometry": { "type": "Point", "coordinates": [ -0.1321377826971, 51.508331641904078 ] } },
{ "type": "Feature", "properties": { "ROCQUE_ID": 283.0, "P_NAME": "Bennet Street", "NAME": "St. James's", "ORIG_FID": 433 }, "geometry": { "type": "Point", "coordinates": [ -0.140439849463291, 51.507075356668793 ] } },
{ "type": "Feature", "properties": { "ROCQUE_ID": 284.0, "P_NAME": "Bennet Street", "NAME": "St. James's", "ORIG_FID": 434 }, "geometry": { "type": "Point", "coordinates": [ -0.130419704713859, 51.500387860171031 ] } },
{ "type": "Feature", "properties": { "ROCQUE_ID": 285.0, "P_NAME": "Bentick Street", "NAME": "West End", "ORIG_FID": 435 }, "geometry": { "type": "Point", "coordinates": [ -0.135890395322349, 51.514029324520379 ] } },
{ "type": "Feature", "properties": { "ROCQUE_ID": 286.0, "P_NAME": "Berkley Square", "NAME": "West End", "ORIG_FID": 436 }, "geometry": { "type": "Point", "coordinates": [ -0.145824656239711, 51.509622371115256 ] } },
{ "type": "Feature", "properties": { "ROCQUE_ID": 287.0, "P_NAME": "Berkley Street", "NAME": "West End", "ORIG_FID": 437 }, "geometry": { "type": "Point", "coordinates": [ -0.14321360172471, 51.508175528899301 ] } },
{ "type": "Feature", "properties": { "ROCQUE_ID": 288.0, "P_NAME": "Berry Street", "NAME": "St. James's", "ORIG_FID": 438 }, "geometry": { "type": "Point", "coordinates": [ -0.138647125859279, 51.506966565095354 ] } },
{ "type": "Feature", "properties": { "ROCQUE_ID": 290.0, "P_NAME": "Binhams Yard", "NAME": "St. James's", "ORIG_FID": 439 }, "geometry": { "type": "Point", "coordinates": [ -0.137342052999884, 51.506151964189485 ] } },
{ "type": "Feature", "properties": { "ROCQUE_ID": 291.0, "P_NAME": "Black Bear Inn", "NAME": "West End", "ORIG_FID": 440 }, "geometry": { "type": "Point", "coordinates": [ -0.134890155110043, 51.50979994435329 ] } },
{ "type": "Feature", "properties": { "ROCQUE_ID": 292.0, "P_NAME": "Black Swan Court", "NAME": "St. James's", "ORIG_FID": 441 }, "geometry": { "type": "Point", "coordinates": [ -0.134528806782328, 51.508737154712435 ] } },
{ "type": "Feature", "properties": { "ROCQUE_ID": 293.0, "P_NAME": "Blackmoor Head Yard", "NAME": "St. James's", "ORIG_FID": 442 }, "geometry": { "type": "Point", "coordinates": [ -0.136742659844458, 51.508068444614764 ] } },
{ "type": "Feature", "properties": { "ROCQUE_ID": 294.0, "P_NAME": "Blue Cross Street", "NAME": "St. James's", "ORIG_FID": 443 }, "geometry": { "type": "Point", "coordinates": [ -0.130299734417349, 51.509422046947293 ] } },
{ "type": "Feature", "properties": { "ROCQUE_ID": 295.0, "P_NAME": "Bolton Row", "NAME": "West End", "ORIG_FID": 444 }, "geometry": { "type": "Point", "coordinates": [ -0.144852220953908, 51.508055813086685 ] } },
{ "type": "Feature", "properties": { "ROCQUE_ID": 296.0, "P_NAME": "Bolton Street", "NAME": "West End", "ORIG_FID": 445 }, "geometry": { "type": "Point", "coordinates": [ -0.144371253729332, 51.507078891794663 ] } },
{ "type": "Feature", "properties": { "ROCQUE_ID": 299.0, "P_NAME": "Boot Passage", "NAME": "West End", "ORIG_FID": 446 }, "geometry": { "type": "Point", "coordinates": [ -0.135268740996253, 51.509786393784452 ] } },
{ "type": "Feature", "properties": { "ROCQUE_ID": 300.0, "P_NAME": "Brewers Street", "NAME": "West End", "ORIG_FID": 447 }, "geometry": { "type": "Point", "coordinates": [ -0.136174104060046, 51.511175520077813 ] } },
{ "type": "Feature", "properties": { "ROCQUE_ID": 301.0, "P_NAME": "Bridle Lane", "NAME": "West End", "ORIG_FID": 448 }, "geometry": { "type": "Point", "coordinates": [ -0.136390849715099, 51.511927464162 ] } },
{ "type": "Feature", "properties": { "ROCQUE_ID": 302.0, "P_NAME": "Broad Street", "NAME": "West End", "ORIG_FID": 449 }, "geometry": { "type": "Point", "coordinates": [ -0.136400920106098, 51.513425301003736 ] } },
{ "type": "Feature", "properties": { "ROCQUE_ID": 304.0, "P_NAME": "Bruton Mewse", "NAME": "West End", "ORIG_FID": 450 }, "geometry": { "type": "Point", "coordinates": [ -0.144406633276958, 51.509907227649819 ] } },
{ "type": "Feature", "properties": { "ROCQUE_ID": 305.0, "P_NAME": "Bruton Street", "NAME": "West End", "ORIG_FID": 451 }, "geometry": { "type": "Point", "coordinates": [ -0.144418810319621, 51.510649708623532 ] } },
{ "type": "Feature", "properties": { "ROCQUE_ID": 306.0, "P_NAME": "Buckingham House", "NAME": "St. James's", "ORIG_FID": 452 }, "geometry": { "type": "Point", "coordinates": [ -0.143600911309477, 51.500920213933568 ] } },
{ "type": "Feature", "properties": { "ROCQUE_ID": 307.0, "P_NAME": "Burlams Mewse", "NAME": "West End", "ORIG_FID": 453 }, "geometry": { "type": "Point", "coordinates": [ -0.143537979281973, 51.510393063654192 ] } },
{ "type": "Feature", "properties": { "ROCQUE_ID": 309.0, "P_NAME": "Burlington House", "NAME": "West End", "ORIG_FID": 454 }, "geometry": { "type": "Point", "coordinates": [ -0.139529191539623, 51.509219329163898 ] } },
{ "type": "Feature", "properties": { "ROCQUE_ID": 310.0, "P_NAME": "Burlington Mewse", "NAME": "West End", "ORIG_FID": 455 }, "geometry": { "type": "Point", "coordinates": [ -0.140759052999783, 51.512290992133785 ] } },
{ "type": "Feature", "properties": { "ROCQUE_ID": 311.0, "P_NAME": "Burlington Street", "NAME": "West End", "ORIG_FID": 456 }, "geometry": { "type": "Point", "coordinates": [ -0.141000437375624, 51.510735639603809 ] } },
{ "type": "Feature", "properties": { "ROCQUE_ID": 313.0, "P_NAME": "Cambridge Street", "NAME": "West End", "ORIG_FID": 457 }, "geometry": { "type": "Point", "coordinates": [ -0.135765007871669, 51.512513819150627 ] } },
{ "type": "Feature", "properties": { "ROCQUE_ID": 314.0, "P_NAME": "Carlisle Street", "NAME": "West End", "ORIG_FID": 458 }, "geometry": { "type": "Point", "coordinates": [ -0.133745334227569, 51.514884121890645 ] } },
{ "type": "Feature", "properties": { "ROCQUE_ID": 315.0, "P_NAME": "Carnaby Market", "NAME": "West End", "ORIG_FID": 459 }, "geometry": { "type": "Point", "coordinates": [ -0.138270096562337, 51.513419451657683 ] } },
{ "type": "Feature", "properties": { "ROCQUE_ID": 316.0, "P_NAME": "Carnaby Street", "NAME": "West End", "ORIG_FID": 460 }, "geometry": { "type": "Point", "coordinates": [ -0.138701007643249, 51.513026220200118 ] } },
{ "type": "Feature", "properties": { "ROCQUE_ID": 317.0, "P_NAME": "Castle Street", "NAME": "West End", "ORIG_FID": 461 }, "geometry": { "type": "Point", "coordinates": [ -0.135470159642864, 51.50988050410524 ] } },
{ "type": "Feature", "properties": { "ROCQUE_ID": 318.0, "P_NAME": "Castle Yard", "NAME": "West End", "ORIG_FID": 462 }, "geometry": { "type": "Point", "coordinates": [ -0.135588442441076, 51.509674028726295 ] } },
{ "type": "Feature", "properties": { "ROCQUE_ID": 319.0, "P_NAME": "Catherine Wheel Yard", "NAME": "St. James's", "ORIG_FID": 463 }, "geometry": { "type": "Point", "coordinates": [ -0.139463110768702, 51.505331116437446 ] } },
{ "type": "Feature", "properties": { "ROCQUE_ID": 320.0, "P_NAME": "Chapel", "NAME": "West End", "ORIG_FID": 464 }, "geometry": { "type": "Point", "coordinates": [ -0.139364446280524, 51.512388162198476 ] } },
{ "type": "Feature", "properties": { "ROCQUE_ID": 321.0, "P_NAME": "Chapel", "NAME": "West End", "ORIG_FID": 465 }, "geometry": { "type": "Point", "coordinates": [ -0.134718006767798, 51.512992555217352 ] } },
{ "type": "Feature", "properties": { "ROCQUE_ID": 322.0, "P_NAME": "Chapel", "NAME": "St. James's", "ORIG_FID": 466 }, "geometry": { "type": "Point", "coordinates": [ -0.134221718821209, 51.500081396196038 ] } },
{ "type": "Feature", "properties": { "ROCQUE_ID": 323.0, "P_NAME": "Chapel", "NAME": "St. James's", "ORIG_FID": 467 }, "geometry": { "type": "Point", "coordinates": [ -0.129681985767093, 51.501881690404844 ] } },
{ "type": "Feature", "properties": { "ROCQUE_ID": 324.0, "P_NAME": "Chapel Alley", "NAME": "West End", "ORIG_FID": 468 }, "geometry": { "type": "Point", "coordinates": [ -0.13937269046437, 51.512262828589883 ] } },
{ "type": "Feature", "properties": { "ROCQUE_ID": 326.0, "P_NAME": "Charles Street", "NAME": "St. James's", "ORIG_FID": 469 }, "geometry": { "type": "Point", "coordinates": [ -0.133463305246551, 51.507876108691562 ] } },
{ "type": "Feature", "properties": { "ROCQUE_ID": 327.0, "P_NAME": "Charlton House", "NAME": "St. James's", "ORIG_FID": 470 }, "geometry": { "type": "Point", "coordinates": [ -0.132552169612609, 51.506107812339906 ] } },
{ "type": "Feature", "properties": { "ROCQUE_ID": 328.0, "P_NAME": "Cherry-tree Court", "NAME": "St. James's", "ORIG_FID": 471 }, "geometry": { "type": "Point", "coordinates": [ -0.134925457357895, 51.50930853857426 ] } },
{ "type": "Feature", "properties": { "ROCQUE_ID": 329.0, "P_NAME": "Chidlies Court", "NAME": "St. James's", "ORIG_FID": 472 }, "geometry": { "type": "Point", "coordinates": [ -0.132110180798918, 51.507155677012634 ] } },
{ "type": "Feature", "properties": { "ROCQUE_ID": 330.0, "P_NAME": "Church Court", "NAME": "St. James's", "ORIG_FID": 473 }, "geometry": { "type": "Point", "coordinates": [ -0.136279083264526, 51.508852458267938 ] } },
{ "type": "Feature", "properties": { "ROCQUE_ID": 331.0, "P_NAME": "Church Passage", "NAME": "St. James's", "ORIG_FID": 474 }, "geometry": { "type": "Point", "coordinates": [ -0.136461322370451, 51.508798590570223 ] } },
{ "type": "Feature", "properties": { "ROCQUE_ID": 332.0, "P_NAME": "Church Street", "NAME": "West End", "ORIG_FID": 475 }, "geometry": { "type": "Point", "coordinates": [ -0.130545594787691, 51.513021763181314 ] } },
{ "type": "Feature", "properties": { "ROCQUE_ID": 333.0, "P_NAME": "Church Yard [St Annes Soho]", "NAME": "West End", "ORIG_FID": 476 }, "geometry": { "type": "Point", "coordinates": [ -0.132305893872399, 51.512223644298501 ] } },
{ "type": "Feature", "properties": { "ROCQUE_ID": 334.0, "P_NAME": "Church Yard [St Jamess Piccadilly]", "NAME": "St. James's", "ORIG_FID": 477 }, "geometry": { "type": "Point", "coordinates": [ -0.137083043111488, 51.508578818466049 ] } },
{ "type": "Feature", "properties": { "ROCQUE_ID": 335.0, "P_NAME": "Clarges Street", "NAME": "West End", "ORIG_FID": 478 }, "geometry": { "type": "Point", "coordinates": [ -0.144942069251556, 51.506723908649292 ] } },
{ "type": "Feature", "properties": { "ROCQUE_ID": 336.0, "P_NAME": "Cleveland Court", "NAME": "St. James's", "ORIG_FID": 479 }, "geometry": { "type": "Point", "coordinates": [ -0.139590596430935, 51.505592485715169 ] } },
{ "type": "Feature", "properties": { "ROCQUE_ID": 337.0, "P_NAME": "Cleveland Court", "NAME": "St. James's", "ORIG_FID": 480 }, "geometry": { "type": "Point", "coordinates": [ -0.139271663036197, 51.504579245112836 ] } },
{ "type": "Feature", "properties": { "ROCQUE_ID": 338.0, "P_NAME": "Cleveland Row", "NAME": "St. James's", "ORIG_FID": 481 }, "geometry": { "type": "Point", "coordinates": [ -0.140204173512757, 51.504550448735245 ] } },
{ "type": "Feature", "properties": { "ROCQUE_ID": 339.0, "P_NAME": "Cleveland Street", "NAME": "St. James's", "ORIG_FID": 482 }, "geometry": { "type": "Point", "coordinates": [ -0.138406467798632, 51.504828151490074 ] } },
{ "type": "Feature", "properties": { "ROCQUE_ID": 340.0, "P_NAME": "Cleveland Yard", "NAME": "St. James's", "ORIG_FID": 483 }, "geometry": { "type": "Point", "coordinates": [ -0.136814184952527, 51.506490469444543 ] } },
{ "type": "Feature", "properties": { "ROCQUE_ID": 341.0, "P_NAME": "Clifford Street", "NAME": "West End", "ORIG_FID": 484 }, "geometry": { "type": "Point", "coordinates": [ -0.141672155121341, 51.510934180230834 ] } },
{ "type": "Feature", "properties": { "ROCQUE_ID": 342.0, "P_NAME": "Cock Court", "NAME": "West End", "ORIG_FID": 485 }, "geometry": { "type": "Point", "coordinates": [ -0.135363681183662, 51.513154671178199 ] } },
{ "type": "Feature", "properties": { "ROCQUE_ID": 343.0, "P_NAME": "Cock Yard", "NAME": "St. James's", "ORIG_FID": 486 }, "geometry": { "type": "Point", "coordinates": [ -0.132432413869537, 51.508552005921956 ] } },
{ "type": "Feature", "properties": { "ROCQUE_ID": 344.0, "P_NAME": "Cock Yard", "NAME": "St. James's", "ORIG_FID": 487 }, "geometry": { "type": "Point", "coordinates": [ -0.131152474496048, 51.500332298630383 ] } },
{ "type": "Feature", "properties": { "ROCQUE_ID": 345.0, "P_NAME": "Cockspur Street", "NAME": "St. James's", "ORIG_FID": 488 }, "geometry": { "type": "Point", "coordinates": [ -0.129964065563399, 51.507635207788553 ] } },
{ "type": "Feature", "properties": { "ROCQUE_ID": 346.0, "P_NAME": "Cogdell Court", "NAME": "West End", "ORIG_FID": 489 }, "geometry": { "type": "Point", "coordinates": [ -0.136670709005557, 51.512956940976437 ] } },
{ "type": "Feature", "properties": { "ROCQUE_ID": 347.0, "P_NAME": "Compton Street", "NAME": "Holborn and Covent Garden", "ORIG_FID": 490 }, "geometry": { "type": "Point", "coordinates": [ -0.128724375506863, 51.514169575180858 ] } },
{ "type": "Feature", "properties": { "ROCQUE_ID": 347.0, "P_NAME": "Compton Street", "NAME": "West End", "ORIG_FID": 491 }, "geometry": { "type": "Point", "coordinates": [ -0.130742568231653, 51.51338877400849 ] } },
{ "type": "Feature", "properties": { "ROCQUE_ID": 348.0, "P_NAME": "Conduit Street", "NAME": "West End", "ORIG_FID": 492 }, "geometry": { "type": "Point", "coordinates": [ -0.142067588923965, 51.512105853296816 ] } },
{ "type": "Feature", "properties": { "ROCQUE_ID": 349.0, "P_NAME": "Cork Street", "NAME": "West End", "ORIG_FID": 493 }, "geometry": { "type": "Point", "coordinates": [ -0.14145942335017, 51.510300770925824 ] } },
{ "type": "Feature", "properties": { "ROCQUE_ID": 350.0, "P_NAME": "Coventry Court", "NAME": "St. James's", "ORIG_FID": 494 }, "geometry": { "type": "Point", "coordinates": [ -0.132434753410053, 51.509814502380323 ] } },
{ "type": "Feature", "properties": { "ROCQUE_ID": 351.0, "P_NAME": "Coventry Street", "NAME": "St. James's", "ORIG_FID": 495 }, "geometry": { "type": "Point", "coordinates": [ -0.132041643373668, 51.510323766269721 ] } },
{ "type": "Feature", "properties": { "ROCQUE_ID": 352.0, "P_NAME": "Cranborn Alley", "NAME": "St. James's", "ORIG_FID": 496 }, "geometry": { "type": "Point", "coordinates": [ -0.129086853994522, 51.511172998056281 ] } },
{ "type": "Feature", "properties": { "ROCQUE_ID": 353.0, "P_NAME": "Cross Court", "NAME": "West End", "ORIG_FID": 497 }, "geometry": { "type": "Point", "coordinates": [ -0.138582844636403, 51.513199336593971 ] } },
{ "type": "Feature", "properties": { "ROCQUE_ID": 354.0, "P_NAME": "Cross Street", "NAME": "West End", "ORIG_FID": 498 }, "geometry": { "type": "Point", "coordinates": [ -0.139126808557194, 51.512939133681357 ] } },
{ "type": "Feature", "properties": { "ROCQUE_ID": 355.0, "P_NAME": "Crown and Sceptre Court", "NAME": "St. James's", "ORIG_FID": 499 }, "geometry": { "type": "Point", "coordinates": [ -0.139616213564295, 51.507217499252874 ] } },
{ "type": "Feature", "properties": { "ROCQUE_ID": 356.0, "P_NAME": "Crown Court", "NAME": "West End", "ORIG_FID": 500 }, "geometry": { "type": "Point", "coordinates": [ -0.133778103045188, 51.512122517975513 ] } },
{ "type": "Feature", "properties": { "ROCQUE_ID": 358.0, "P_NAME": "Darby Court", "NAME": "St. James's", "ORIG_FID": 501 }, "geometry": { "type": "Point", "coordinates": [ -0.13599130907096, 51.508954792574514 ] } },
{ "type": "Feature", "properties": { "ROCQUE_ID": 359.0, "P_NAME": "De Fords Court", "NAME": "West End", "ORIG_FID": 502 }, "geometry": { "type": "Point", "coordinates": [ -0.137233016663231, 51.513510986231267 ] } },
{ "type": "Feature", "properties": { "ROCQUE_ID": 360.0, "P_NAME": "De La Hay Street", "NAME": "St. James's", "ORIG_FID": 503 }, "geometry": { "type": "Point", "coordinates": [ -0.129358180740383, 51.501314751512837 ] } },
{ "type": "Feature", "properties": { "ROCQUE_ID": 362.0, "P_NAME": "Denmark Street", "NAME": "Holborn and Covent Garden", "ORIG_FID": 504 }, "geometry": { "type": "Point", "coordinates": [ -0.129315923142713, 51.515343068633229 ] } },
{ "type": "Feature", "properties": { "ROCQUE_ID": 363.0, "P_NAME": "Devonshire House", "NAME": "West End", "ORIG_FID": 505 }, "geometry": { "type": "Point", "coordinates": [ -0.142951373069081, 51.507323904894292 ] } },
{ "type": "Feature", "properties": { "ROCQUE_ID": 364.0, "P_NAME": "Dog and Duck Alley", "NAME": "West End", "ORIG_FID": 506 }, "geometry": { "type": "Point", "coordinates": [ -0.143834786838852, 51.511415074637625 ] } },
{ "type": "Feature", "properties": { "ROCQUE_ID": 365.0, "P_NAME": "Dolphin Yard", "NAME": "St. James's", "ORIG_FID": 507 }, "geometry": { "type": "Point", "coordinates": [ -0.130926568119321, 51.512162394006737 ] } },
{ "type": "Feature", "properties": { "ROCQUE_ID": 366.0, "P_NAME": "Dover Street", "NAME": "West End", "ORIG_FID": 508 }, "geometry": { "type": "Point", "coordinates": [ -0.142520998546388, 51.508731326495763 ] } },
{ "type": "Feature", "properties": { "ROCQUE_ID": 367.0, "P_NAME": "Dover Yard", "NAME": "West End", "ORIG_FID": 509 }, "geometry": { "type": "Point", "coordinates": [ -0.142536879109684, 51.507937105896417 ] } },
{ "type": "Feature", "properties": { "ROCQUE_ID": 368.0, "P_NAME": "Duke of Norfolks Stable Yard", "NAME": "St. James's", "ORIG_FID": 510 }, "geometry": { "type": "Point", "coordinates": [ -0.133147464774083, 51.507475198479369 ] } },
{ "type": "Feature", "properties": { "ROCQUE_ID": 369.0, "P_NAME": "Duke Street", "NAME": "St. James's", "ORIG_FID": 511 }, "geometry": { "type": "Point", "coordinates": [ -0.137972131487913, 51.507485658104997 ] } },
{ "type": "Feature", "properties": { "ROCQUE_ID": 370.0, "P_NAME": "Dunghill Mewse", "NAME": "St. James's", "ORIG_FID": 512 }, "geometry": { "type": "Point", "coordinates": [ -0.129582866851706, 51.508116019540466 ] } },
{ "type": "Feature", "properties": { "ROCQUE_ID": 371.0, "P_NAME": "Eagle Street", "NAME": "St. James's", "ORIG_FID": 513 }, "geometry": { "type": "Point", "coordinates": [ -0.135507276514545, 51.509117744397372 ] } },
{ "type": "Feature", "properties": { "ROCQUE_ID": 372.0, "P_NAME": "Earl of Godolphin", "NAME": "St. James's", "ORIG_FID": 514 }, "geometry": { "type": "Point", "coordinates": [ -0.139018733403645, 51.503563317994121 ] } },
{ "type": "Feature", "properties": { "ROCQUE_ID": 373.0, "P_NAME": "Edmunds Court", "NAME": "West End", "ORIG_FID": 515 }, "geometry": { "type": "Point", "coordinates": [ -0.133242884476203, 51.512172897928394 ] } },
{ "type": "Feature", "properties": { "ROCQUE_ID": 374.0, "P_NAME": "Edward Street", "NAME": "West End", "ORIG_FID": 516 }, "geometry": { "type": "Point", "coordinates": [ -0.13480969768716, 51.513990594190545 ] } },
{ "type": "Feature", "properties": { "ROCQUE_ID": 375.0, "P_NAME": "Edwards Court", "NAME": "St. James's", "ORIG_FID": 517 }, "geometry": { "type": "Point", "coordinates": [ -0.131776441528928, 51.510006992728449 ] } },
{ "type": "Feature", "properties": { "ROCQUE_ID": 376.0, "P_NAME": "Evans Row", "NAME": "West End", "ORIG_FID": 518 }, "geometry": { "type": "Point", "coordinates": [ -0.143401795532554, 51.509976263507269 ] } },
{ "type": "Feature", "properties": { "ROCQUE_ID": 377.0, "P_NAME": "Fouberts Passage", "NAME": "West End", "ORIG_FID": 519 }, "geometry": { "type": "Point", "coordinates": [ -0.139762761304155, 51.513495263992809 ] } },
{ "type": "Feature", "properties": { "ROCQUE_ID": 378.0, "P_NAME": "Fox Court", "NAME": "St. James's", "ORIG_FID": 520 }, "geometry": { "type": "Point", "coordinates": [ -0.139319918176625, 51.506821014743764 ] } },
{ "type": "Feature", "properties": { "ROCQUE_ID": 379.0, "P_NAME": "Fr[ench] Ch[urch]", "NAME": "West End", "ORIG_FID": 521 }, "geometry": { "type": "Point", "coordinates": [ -0.134941492520738, 51.51324669807218 ] } },
{ "type": "Feature", "properties": { "ROCQUE_ID": 380.0, "P_NAME": "Fr[ench] Ch[urch]", "NAME": "West End", "ORIG_FID": 522 }, "geometry": { "type": "Point", "coordinates": [ -0.134564273117576, 51.515082249476109 ] } },
{ "type": "Feature", "properties": { "ROCQUE_ID": 381.0, "P_NAME": "French Chu[rch]", "NAME": "West End", "ORIG_FID": 523 }, "geometry": { "type": "Point", "coordinates": [ -0.130089304235298, 51.514259071904235 ] } },
{ "type": "Feature", "properties": { "ROCQUE_ID": 382.0, "P_NAME": "French Church", "NAME": "St. James's", "ORIG_FID": 524 }, "geometry": { "type": "Point", "coordinates": [ -0.129785291559529, 51.509588318644091 ] } },
{ "type": "Feature", "properties": { "ROCQUE_ID": 383.0, "P_NAME": "French Church", "NAME": "St. James's", "ORIG_FID": 525 }, "geometry": { "type": "Point", "coordinates": [ -0.129291262710467, 51.507251015107613 ] } },
{ "type": "Feature", "properties": { "ROCQUE_ID": 384.0, "P_NAME": "Fryery", "NAME": "St. James's", "ORIG_FID": 526 }, "geometry": { "type": "Point", "coordinates": [ -0.137708916328847, 51.505172045261133 ] } },
{ "type": "Feature", "properties": { "ROCQUE_ID": 385.0, "P_NAME": "Fryingpan Alley", "NAME": "West End", "ORIG_FID": 527 }, "geometry": { "type": "Point", "coordinates": [ -0.134175085637253, 51.513205331459176 ] } },
{ "type": "Feature", "properties": { "ROCQUE_ID": 386.0, "P_NAME": "George Court", "NAME": "St. James's", "ORIG_FID": 528 }, "geometry": { "type": "Point", "coordinates": [ -0.13233778293943, 51.511151473328937 ] } },
{ "type": "Feature", "properties": { "ROCQUE_ID": 388.0, "P_NAME": "George Yard", "NAME": "West End", "ORIG_FID": 529 }, "geometry": { "type": "Point", "coordinates": [ -0.130524496606085, 51.515230228251312 ] } },
{ "type": "Feature", "properties": { "ROCQUE_ID": 389.0, "P_NAME": "German Church", "NAME": "St. James's", "ORIG_FID": 530 }, "geometry": { "type": "Point", "coordinates": [ -0.137234905909281, 51.504893407458439 ] } },
{ "type": "Feature", "properties": { "ROCQUE_ID": 390.0, "P_NAME": "Gerrard Street", "NAME": "St. James's", "ORIG_FID": 531 }, "geometry": { "type": "Point", "coordinates": [ -0.130921173491515, 51.511845543922391 ] } },
{ "type": "Feature", "properties": { "ROCQUE_ID": 391.0, "P_NAME": "Gibsons Court", "NAME": "West End", "ORIG_FID": 532 }, "geometry": { "type": "Point", "coordinates": [ -0.135449478693772, 51.510140989848878 ] } },
{ "type": "Feature", "properties": { "ROCQUE_ID": 392.0, "P_NAME": "Glass-House Street", "NAME": "West End", "ORIG_FID": 533 }, "geometry": { "type": "Point", "coordinates": [ -0.138561628118623, 51.510318160871975 ] } },
{ "type": "Feature", "properties": { "ROCQUE_ID": 393.0, "P_NAME": "Gloucester Court", "NAME": "St. James's", "ORIG_FID": 534 }, "geometry": { "type": "Point", "coordinates": [ -0.138302887149621, 51.505964307580143 ] } },
{ "type": "Feature", "properties": { "ROCQUE_ID": 394.0, "P_NAME": "Golden Square", "NAME": "West End", "ORIG_FID": 535 }, "geometry": { "type": "Point", "coordinates": [ -0.137167712964583, 51.51163147733314 ] } },
{ "type": "Feature", "properties": { "ROCQUE_ID": 395.0, "P_NAME": "Grafton Street", "NAME": "St. James's", "ORIG_FID": 536 }, "geometry": { "type": "Point", "coordinates": [ -0.129443951533176, 51.512707407935522 ] } },
{ "type": "Feature", "properties": { "ROCQUE_ID": 396.0, "P_NAME": "Great George Street", "NAME": "West End", "ORIG_FID": 537 }, "geometry": { "type": "Point", "coordinates": [ -0.143100659188349, 51.51250705315033 ] } },
{ "type": "Feature", "properties": { "ROCQUE_ID": 397.0, "P_NAME": "Great Jermyn Street", "NAME": "St. James's", "ORIG_FID": 538 }, "geometry": { "type": "Point", "coordinates": [ -0.136514657933731, 51.508478919568006 ] } },
{ "type": "Feature", "properties": { "ROCQUE_ID": 398.0, "P_NAME": "Great Maddox Street", "NAME": "West End", "ORIG_FID": 539 }, "geometry": { "type": "Point", "coordinates": [ -0.142216142616235, 51.512983885710128 ] } },
{ "type": "Feature", "properties": { "ROCQUE_ID": 399.0, "P_NAME": "Great Marlborough Street", "NAME": "West End", "ORIG_FID": 540 }, "geometry": { "type": "Point", "coordinates": [ -0.138732074585278, 51.514420702238567 ] } },
{ "type": "Feature", "properties": { "ROCQUE_ID": 400.0, "P_NAME": "Great Rider Street", "NAME": "St. James's", "ORIG_FID": 541 }, "geometry": { "type": "Point", "coordinates": [ -0.138149351114407, 51.507051145599689 ] } },
{ "type": "Feature", "properties": { "ROCQUE_ID": 401.0, "P_NAME": "Great Suffolk Street", "NAME": "St. James's", "ORIG_FID": 542 }, "geometry": { "type": "Point", "coordinates": [ -0.130629309744108, 51.50830120005412 ] } },
{ "type": "Feature", "properties": { "ROCQUE_ID": 402.0, "P_NAME": "Great Swallow Street", "NAME": "West End", "ORIG_FID": 543 }, "geometry": { "type": "Point", "coordinates": [ -0.140416798298247, 51.512794993584976 ] } },
{ "type": "Feature", "properties": { "ROCQUE_ID": 403.0, "P_NAME": "Great Windmill Street", "NAME": "St. James's", "ORIG_FID": 544 }, "geometry": { "type": "Point", "coordinates": [ -0.133720439043827, 51.510468342283275 ] } },
{ "type": "Feature", "properties": { "ROCQUE_ID": 403.0, "P_NAME": "Great Windmill Street", "NAME": "West End", "ORIG_FID": 545 }, "geometry": { "type": "Point", "coordinates": [ -0.134414376108907, 51.511466914613266 ] } },
{ "type": "Feature", "properties": { "ROCQUE_ID": 404.0, "P_NAME": "Greek Street", "NAME": "West End", "ORIG_FID": 546 }, "geometry": { "type": "Point", "coordinates": [ -0.13075110281352, 51.513894344388973 ] } },
{ "type": "Feature", "properties": { "ROCQUE_ID": 405.0, "P_NAME": "Green Mewse (The)", "NAME": "St. James's", "ORIG_FID": 547 }, "geometry": { "type": "Point", "coordinates": [ -0.129185913305264, 51.508954114397056 ] } },
{ "type": "Feature", "properties": { "ROCQUE_ID": 406.0, "P_NAME": "Green Park (The)", "NAME": "St. James's", "ORIG_FID": 548 }, "geometry": { "type": "Point", "coordinates": [ -0.143955627165269, 51.503946610027924 ] } },
{ "type": "Feature", "properties": { "ROCQUE_ID": 406.0, "P_NAME": "Green Park (The)", "NAME": "West End", "ORIG_FID": 549 }, "geometry": { "type": "Point", "coordinates": [ -0.151156686944887, 51.502234828833025 ] } },
{ "type": "Feature", "properties": { "ROCQUE_ID": 407.0, "P_NAME": "Green Street", "NAME": "St. James's", "ORIG_FID": 550 }, "geometry": { "type": "Point", "coordinates": [ -0.129013533471152, 51.509909109852742 ] } },
{ "type": "Feature", "properties": { "ROCQUE_ID": 408.0, "P_NAME": "Greens Court", "NAME": "West End", "ORIG_FID": 551 }, "geometry": { "type": "Point", "coordinates": [ -0.134431588230655, 51.512414788128808 ] } },
{ "type": "Feature", "properties": { "ROCQUE_ID": 409.0, "P_NAME": "Greys Yard", "NAME": "St. James's", "ORIG_FID": 552 }, "geometry": { "type": "Point", "coordinates": [ -0.138167773780879, 51.507338238356169 ] } },
{ "type": "Feature", "properties": { "ROCQUE_ID": 410.0, "P_NAME": "Grosvenor Mewse (2)", "NAME": "West End", "ORIG_FID": 553 }, "geometry": { "type": "Point", "coordinates": [ -0.145360425056424, 51.511220256099477 ] } },
{ "type": "Feature", "properties": { "ROCQUE_ID": 411.0, "P_NAME": "Halburn Yard Mewse", "NAME": "St. James's", "ORIG_FID": 554 }, "geometry": { "type": "Point", "coordinates": [ -0.137389421346597, 51.507604582933709 ] } },
{ "type": "Feature", "properties": { "ROCQUE_ID": 412.0, "P_NAME": "Half-Moon Street", "NAME": "West End", "ORIG_FID": 555 }, "geometry": { "type": "Point", "coordinates": [ -0.145473680167925, 51.506473322515376 ] } },
{ "type": "Feature", "properties": { "ROCQUE_ID": 413.0, "P_NAME": "Ham Yard", "NAME": "West End", "ORIG_FID": 556 }, "geometry": { "type": "Point", "coordinates": [ -0.134642585355323, 51.511201344255824 ] } },
{ "type": "Feature", "properties": { "ROCQUE_ID": 414.0, "P_NAME": "Hammond Court", "NAME": "St. James's", "ORIG_FID": 557 }, "geometry": { "type": "Point", "coordinates": [ -0.133138458826579, 51.50945786741795 ] } },
{ "type": "Feature", "properties": { "ROCQUE_ID": 415.0, "P_NAME": "Hanover Square", "NAME": "West End", "ORIG_FID": 558 }, "geometry": { "type": "Point", "coordinates": [ -0.14377400680678, 51.513894715462811 ] } },
{ "type": "Feature", "properties": { "ROCQUE_ID": 416.0, "P_NAME": "Hanover Street", "NAME": "West End", "ORIG_FID": 559 }, "geometry": { "type": "Point", "coordinates": [ -0.142329087015241, 51.513836640748195 ] } },
{ "type": "Feature", "properties": { "ROCQUE_ID": 417.0, "P_NAME": "Hay Hill", "NAME": "West End", "ORIG_FID": 560 }, "geometry": { "type": "Point", "coordinates": [ -0.143663428490981, 51.509125953831244 ] } },
{ "type": "Feature", "properties": { "ROCQUE_ID": 418.0, "P_NAME": "Hay Market (The)", "NAME": "St. James's", "ORIG_FID": 561 }, "geometry": { "type": "Point", "coordinates": [ -0.132186636736151, 51.509021323523484 ] } },
{ "type": "Feature", "properties": { "ROCQUE_ID": 419.0, "P_NAME": "Hays Court", "NAME": "St. James's", "ORIG_FID": 562 }, "geometry": { "type": "Point", "coordinates": [ -0.129813023144379, 51.512553616077639 ] } },
{ "type": "Feature", "properties": { "ROCQUE_ID": 420.0, "P_NAME": "Heddon Court", "NAME": "West End", "ORIG_FID": 563 }, "geometry": { "type": "Point", "coordinates": [ -0.139697972452268, 51.511309764522593 ] } },
{ "type": "Feature", "properties": { "ROCQUE_ID": 421.0, "P_NAME": "Heddon Street", "NAME": "West End", "ORIG_FID": 564 }, "geometry": { "type": "Point", "coordinates": [ -0.139582976931706, 51.511044196318835 ] } },
{ "type": "Feature", "properties": { "ROCQUE_ID": 422.0, "P_NAME": "Hedge Lane (2)", "NAME": "St. James's", "ORIG_FID": 565 }, "geometry": { "type": "Point", "coordinates": [ -0.130143777932972, 51.508495184010826 ] } },
{ "type": "Feature", "properties": { "ROCQUE_ID": 425.0, "P_NAME": "Hopkins Street", "NAME": "West End", "ORIG_FID": 566 }, "geometry": { "type": "Point", "coordinates": [ -0.135028075368609, 51.513083257363178 ] } },
{ "type": "Feature", "properties": { "ROCQUE_ID": 426.0, "P_NAME": "Horseshoe Yard", "NAME": "West End", "ORIG_FID": 567 }, "geometry": { "type": "Point", "coordinates": [ -0.14571772509953, 51.512855880195275 ] } },
{ "type": "Feature", "properties": { "ROCQUE_ID": 427.0, "P_NAME": "Husbands Street", "NAME": "West End", "ORIG_FID": 568 }, "geometry": { "type": "Point", "coordinates": [ -0.1354002506705, 51.512858644360676 ] } },
{ "type": "Feature", "properties": { "ROCQUE_ID": 428.0, "P_NAME": "James Street", "NAME": "West End", "ORIG_FID": 569 }, "geometry": { "type": "Point", "coordinates": [ -0.135854903201107, 51.51092373393476 ] } },
{ "type": "Feature", "properties": { "ROCQUE_ID": 429.0, "P_NAME": "James Street", "NAME": "St. James's", "ORIG_FID": 570 }, "geometry": { "type": "Point", "coordinates": [ -0.130978300177958, 51.509228461596649 ] } },
{ "type": "Feature", "properties": { "ROCQUE_ID": 430.0, "P_NAME": "Jermain Court", "NAME": "St. James's", "ORIG_FID": 571 }, "geometry": { "type": "Point", "coordinates": [ -0.134296386211645, 51.509406657598447 ] } },
{ "type": "Feature", "properties": { "ROCQUE_ID": 433.0, "P_NAME": "John Street", "NAME": "West End", "ORIG_FID": 572 }, "geometry": { "type": "Point", "coordinates": [ -0.136525513138622, 51.51031604106538 ] } },
{ "type": "Feature", "properties": { "ROCQUE_ID": 434.0, "P_NAME": "Johns Court", "NAME": "West End", "ORIG_FID": 573 }, "geometry": { "type": "Point", "coordinates": [ -0.137344405928161, 51.510978563921526 ] } },
{ "type": "Feature", "properties": { "ROCQUE_ID": 435.0, "P_NAME": "Kemps Court", "NAME": "West End", "ORIG_FID": 574 }, "geometry": { "type": "Point", "coordinates": [ -0.135131478076801, 51.513494847691618 ] } },
{ "type": "Feature", "properties": { "ROCQUE_ID": 436.0, "P_NAME": "King Street", "NAME": "West End", "ORIG_FID": 575 }, "geometry": { "type": "Point", "coordinates": [ -0.140262414701283, 51.513433982152492 ] } },
{ "type": "Feature", "properties": { "ROCQUE_ID": 437.0, "P_NAME": "King Street", "NAME": "St. James's", "ORIG_FID": 576 }, "geometry": { "type": "Point", "coordinates": [ -0.137268919497728, 51.506526235840283 ] } },
{ "type": "Feature", "properties": { "ROCQUE_ID": 438.0, "P_NAME": "King Street", "NAME": "St. James's", "ORIG_FID": 577 }, "geometry": { "type": "Point", "coordinates": [ -0.131148569576908, 51.512269223341718 ] } },
{ "type": "Feature", "properties": { "ROCQUE_ID": 438.0, "P_NAME": "King Street", "NAME": "West End", "ORIG_FID": 578 }, "geometry": { "type": "Point", "coordinates": [ -0.131229026825167, 51.512333753169514 ] } },
{ "type": "Feature", "properties": { "ROCQUE_ID": 439.0, "P_NAME": "King Street", "NAME": "West End", "ORIG_FID": 579 }, "geometry": { "type": "Point", "coordinates": [ -0.129732963105198, 51.513149013742805 ] } },
{ "type": "Feature", "properties": { "ROCQUE_ID": 441.0, "P_NAME": "Kings Arms Yard", "NAME": "West End", "ORIG_FID": 580 }, "geometry": { "type": "Point", "coordinates": [ -0.136339216958731, 51.51064454508014 ] } },
{ "type": "Feature", "properties": { "ROCQUE_ID": 443.0, "P_NAME": "Knaves Acre", "NAME": "West End", "ORIG_FID": 581 }, "geometry": { "type": "Point", "coordinates": [ -0.134175080573186, 51.512224238947965 ] } },
{ "type": "Feature", "properties": { "ROCQUE_ID": 444.0, "P_NAME": "Lancaster Court", "NAME": "West End", "ORIG_FID": 582 }, "geometry": { "type": "Point", "coordinates": [ -0.145109765289817, 51.51258267526282 ] } },
{ "type": "Feature", "properties": { "ROCQUE_ID": 445.0, "P_NAME": "Langs Court", "NAME": "St. James's", "ORIG_FID": 583 }, "geometry": { "type": "Point", "coordinates": [ -0.129664504376706, 51.509740491048433 ] } },
{ "type": "Feature", "properties": { "ROCQUE_ID": 446.0, "P_NAME": "Leicester Fields", "NAME": "St. James's", "ORIG_FID": 584 }, "geometry": { "type": "Point", "coordinates": [ -0.130043845740147, 51.510430155904032 ] } },
{ "type": "Feature", "properties": { "ROCQUE_ID": 447.0, "P_NAME": "Leicester House", "NAME": "St. James's", "ORIG_FID": 585 },