{
"type": "FeatureCollection",
"crs": { "type": "name", "properties": { "name": "urn:ogc:def:crs:OGC:1.3:CRS84" } },
"features": [
{ "type": "Feature", "properties": { "FID_LL_PA": 1, "ID": "p11", "SOURCE_MAP": "EP2", "SOURCE_ID": "MANNIX_GAZ", "NAME": "Christchurch Southwark", "DIGI_SCALE": 1000, "NAME_1": "Farringdon Within", "F_AREA": 7117.11005811, "ORIG_FID": 0, "POINT_X": 531649.36706738546, "POINT_Y": 180620.30763424374 }, "geometry": { "type": "Point", "coordinates": [ -0.104372431640513, 51.509183806250803 ] } },
{ "type": "Feature", "properties": { "FID_LL_PA": 1, "ID": "p11", "SOURCE_MAP": "EP2", "SOURCE_ID": "MANNIX_GAZ", "NAME": "Christchurch Southwark", "DIGI_SCALE": 1000, "NAME_1": "Farringdon Without", "F_AREA": 1309.6130353900001, "ORIG_FID": 1, "POINT_X": 531540.29403947294, "POINT_Y": 180693.16341738962 }, "geometry": { "type": "Point", "coordinates": [ -0.105916056782007, 51.50986390496837 ] } },
{ "type": "Feature", "properties": { "FID_LL_PA": 1, "ID": "p11", "SOURCE_MAP": "EP2", "SOURCE_ID": "MANNIX_GAZ", "NAME": "Christchurch Southwark", "DIGI_SCALE": 1000, "NAME_1": "Bishop's", "F_AREA": 24375.5243228, "ORIG_FID": 2, "POINT_X": 531438.8662130991, "POINT_Y": 180306.15142939985 }, "geometry": { "type": "Point", "coordinates": [ -0.107520879479125, 51.506409585999791 ] } },
{ "type": "Feature", "properties": { "FID_LL_PA": 1, "ID": "p11", "SOURCE_MAP": "EP2", "SOURCE_ID": "MANNIX_GAZ", "NAME": "Christchurch Southwark", "DIGI_SCALE": 1000, "NAME_1": "Cathedrals", "F_AREA": 350786.87684699998, "ORIG_FID": 3, "POINT_X": 531647.72770983167, "POINT_Y": 180297.23701302148 }, "geometry": { "type": "Point", "coordinates": [ -0.104516537860036, 51.506280904752202 ] } },
{ "type": "Feature", "properties": { "FID_LL_PA": 1, "ID": "p11", "SOURCE_MAP": "EP2", "SOURCE_ID": "MANNIX_GAZ", "NAME": "Christchurch Southwark", "DIGI_SCALE": 1000, "NAME_1": "Castle Baynard", "F_AREA": 626.18763532699995, "ORIG_FID": 4, "POINT_X": 531770.15748906229, "POINT_Y": 180695.54354829155 }, "geometry": { "type": "Point", "coordinates": [ -0.102604820916895, 51.509831786213908 ] } },
{ "type": "Feature", "properties": { "FID_LL_PA": 2, "ID": "p144", "SOURCE_MAP": "EP2", "SOURCE_ID": "MANNIX_GAZ", "NAME": "St Saviour Southwark", "DIGI_SCALE": 1000, "NAME_1": "Grange", "F_AREA": 4150.89147116, "ORIG_FID": 5, "POINT_X": 532750.82396610174, "POINT_Y": 180246.07293340564 }, "geometry": { "type": "Point", "coordinates": [ -0.088651040394325, 51.505563314305618 ] } },
{ "type": "Feature", "properties": { "FID_LL_PA": 2, "ID": "p144", "SOURCE_MAP": "EP2", "SOURCE_ID": "MANNIX_GAZ", "NAME": "St Saviour Southwark", "DIGI_SCALE": 1000, "NAME_1": "Queenhithe", "F_AREA": 1343.3192212500001, "ORIG_FID": 6, "POINT_X": 532072.75084086973, "POINT_Y": 180675.78586740419 }, "geometry": { "type": "Point", "coordinates": [ -0.098254471377004, 51.509583653882146 ] } },
{ "type": "Feature", "properties": { "FID_LL_PA": 2, "ID": "p144", "SOURCE_MAP": "EP2", "SOURCE_ID": "MANNIX_GAZ", "NAME": "St Saviour Southwark", "DIGI_SCALE": 1000, "NAME_1": "Dowgate", "F_AREA": 453.44462107300001, "ORIG_FID": 7, "POINT_X": 532458.13616666663, "POINT_Y": 180570.06467782147 }, "geometry": { "type": "Point", "coordinates": [ -0.092744138790295, 51.508543468837161 ] } },
{ "type": "Feature", "properties": { "FID_LL_PA": 2, "ID": "p144", "SOURCE_MAP": "EP2", "SOURCE_ID": "MANNIX_GAZ", "NAME": "St Saviour Southwark", "DIGI_SCALE": 1000, "NAME_1": "Chaucer", "F_AREA": 38048.861437300002, "ORIG_FID": 8, "POINT_X": 532661.26135000028, "POINT_Y": 180028.82336476818 }, "geometry": { "type": "Point", "coordinates": [ -0.090022371092346, 51.503632022242527 ] } },
{ "type": "Feature", "properties": { "FID_LL_PA": 2, "ID": "p144", "SOURCE_MAP": "EP2", "SOURCE_ID": "MANNIX_GAZ", "NAME": "St Saviour Southwark", "DIGI_SCALE": 1000, "NAME_1": "Vintry", "F_AREA": 946.93934245800006, "ORIG_FID": 9, "POINT_X": 532398.53488222789, "POINT_Y": 180594.19877943397 }, "geometry": { "type": "Point", "coordinates": [ -0.093593395606149, 51.508774304238614 ] } },
{ "type": "Feature", "properties": { "FID_LL_PA": 2, "ID": "p144", "SOURCE_MAP": "EP2", "SOURCE_ID": "MANNIX_GAZ", "NAME": "St Saviour Southwark", "DIGI_SCALE": 1000, "NAME_1": "Riverside", "F_AREA": 3871.90930303, "ORIG_FID": 10, "POINT_X": 532777.25147296581, "POINT_Y": 180308.36541890725 }, "geometry": { "type": "Point", "coordinates": [ -0.088247056934051, 51.506116899719927 ] } },
{ "type": "Feature", "properties": { "FID_LL_PA": 2, "ID": "p144", "SOURCE_MAP": "EP2", "SOURCE_ID": "MANNIX_GAZ", "NAME": "St Saviour Southwark", "DIGI_SCALE": 1000, "NAME_1": "Cathedrals", "F_AREA": 581667.91839400004, "ORIG_FID": 11, "POINT_X": 532313.28368981183, "POINT_Y": 180271.04371463694 }, "geometry": { "type": "Point", "coordinates": [ -0.094942229625303, 51.505890227970667 ] } },
{ "type": "Feature", "properties": { "FID_LL_PA": 2, "ID": "p144", "SOURCE_MAP": "EP2", "SOURCE_ID": "MANNIX_GAZ", "NAME": "St Saviour Southwark", "DIGI_SCALE": 1000, "NAME_1": "Castle Baynard", "F_AREA": 1272.98027665, "ORIG_FID": 12, "POINT_X": 531958.06063145492, "POINT_Y": 180686.5412861146 }, "geometry": { "type": "Point", "coordinates": [ -0.099902131652925, 51.509707077872008 ] } },
{ "type": "Feature", "properties": { "FID_LL_PA": 2, "ID": "p144", "SOURCE_MAP": "EP2", "SOURCE_ID": "MANNIX_GAZ", "NAME": "St Saviour Southwark", "DIGI_SCALE": 1000, "NAME_1": "Bridge & Bridge without", "F_AREA": 138.86819422400001, "ORIG_FID": 13, "POINT_X": 532798.7444197135, "POINT_Y": 180506.88310938329 }, "geometry": { "type": "Point", "coordinates": [ -0.087862870481331, 51.507895821996499 ] } },
{ "type": "Feature", "properties": { "FID_LL_PA": 3, "ID": "p137", "SOURCE_MAP": "EP2", "SOURCE_ID": "MANNIX_GAZ", "NAME": "St Olave Southwark", "DIGI_SCALE": 1000, "NAME_1": "Grange", "F_AREA": 79649.109074599997, "ORIG_FID": 14, "POINT_X": 532980.96456405614, "POINT_Y": 179967.76639834046 }, "geometry": { "type": "Point", "coordinates": [ -0.085441879753489, 51.503008274419699 ] } },
{ "type": "Feature", "properties": { "FID_LL_PA": 3, "ID": "p137", "SOURCE_MAP": "EP2", "SOURCE_ID": "MANNIX_GAZ", "NAME": "St Olave Southwark", "DIGI_SCALE": 1000, "NAME_1": "Billingsgate", "F_AREA": 31.755446356099998, "ORIG_FID": 15, "POINT_X": 532914.09973072167, "POINT_Y": 180493.58280704357 }, "geometry": { "type": "Point", "coordinates": [ -0.086206692794804, 51.507749203941785 ] } },
{ "type": "Feature", "properties": { "FID_LL_PA": 3, "ID": "p137", "SOURCE_MAP": "EP2", "SOURCE_ID": "MANNIX_GAZ", "NAME": "St Olave Southwark", "DIGI_SCALE": 1000, "NAME_1": "Chaucer", "F_AREA": 12550.1307576, "ORIG_FID": 16, "POINT_X": 532756.19769631606, "POINT_Y": 179983.60667723417 }, "geometry": { "type": "Point", "coordinates": [ -0.088672358659096, 51.503203413216397 ] } },
{ "type": "Feature", "properties": { "FID_LL_PA": 3, "ID": "p137", "SOURCE_MAP": "EP2", "SOURCE_ID": "MANNIX_GAZ", "NAME": "St Olave Southwark", "DIGI_SCALE": 1000, "NAME_1": "Riverside", "F_AREA": 174656.894157, "ORIG_FID": 17, "POINT_X": 533252.33175000083, "POINT_Y": 180253.91355319321 }, "geometry": { "type": "Point", "coordinates": [ -0.081426450458821, 51.505515855969861 ] } },
{ "type": "Feature", "properties": { "FID_LL_PA": 3, "ID": "p137", "SOURCE_MAP": "EP2", "SOURCE_ID": "MANNIX_GAZ", "NAME": "St Olave Southwark", "DIGI_SCALE": 1000, "NAME_1": "Bridge & Bridge without", "F_AREA": 291.62114598699998, "ORIG_FID": 18, "POINT_X": 532856.66005323734, "POINT_Y": 180500.32844723575 }, "geometry": { "type": "Point", "coordinates": [ -0.087031317234505, 51.507823318184819 ] } },
{ "type": "Feature", "properties": { "FID_LL_PA": 3, "ID": "p137", "SOURCE_MAP": "EP2", "SOURCE_ID": "MANNIX_GAZ", "NAME": "St Olave Southwark", "DIGI_SCALE": 1000, "NAME_1": "Tower", "F_AREA": 8.9268314759099994, "ORIG_FID": 19, "POINT_X": 533165.85835749749, "POINT_Y": 180447.84443425573 }, "geometry": { "type": "Point", "coordinates": [ -0.08259849116439, 51.507278963341378 ] } },
{ "type": "Feature", "properties": { "FID_LL_PA": 4, "ID": "0", "SOURCE_MAP": "EP2", "SOURCE_ID": "LANDMARK", "NAME": "St John Horselydown", "DIGI_SCALE": 1000, "NAME_1": "Grange", "F_AREA": 22283.293077900002, "ORIG_FID": 20, "POINT_X": 533534.5926924916, "POINT_Y": 179672.29581374116 }, "geometry": { "type": "Point", "coordinates": [ -0.077581932593603, 51.500222647329792 ] } },
{ "type": "Feature", "properties": { "FID_LL_PA": 4, "ID": "0", "SOURCE_MAP": "EP2", "SOURCE_ID": "LANDMARK", "NAME": "St John Horselydown", "DIGI_SCALE": 1000, "NAME_1": "Riverside", "F_AREA": 354617.44294699997, "ORIG_FID": 21, "POINT_X": 533601.35054999962, "POINT_Y": 179978.78523267061 }, "geometry": { "type": "Point", "coordinates": [ -0.076504776545335, 51.502961120626424 ] } },
{ "type": "Feature", "properties": { "FID_LL_PA": 4, "ID": "0", "SOURCE_MAP": "EP2", "SOURCE_ID": "LANDMARK", "NAME": "St John Horselydown", "DIGI_SCALE": 1000, "NAME_1": "St. Katharine's and Wapping", "F_AREA": 1431.8213117499999, "ORIG_FID": 22, "POINT_X": 533683.93406381737, "POINT_Y": 180263.14172728173 }, "geometry": { "type": "Point", "coordinates": [ -0.075207982677966, 51.505496946978383 ] } },
{ "type": "Feature", "properties": { "FID_LL_PA": 5, "ID": "p106", "SOURCE_MAP": "EP2", "SOURCE_ID": "MANNIX_GAZ", "NAME": "St Mary Magdalen Bermondsey", "DIGI_SCALE": 1000, "NAME_1": "Livesey", "F_AREA": 5863.9920772200003, "ORIG_FID": 23, "POINT_X": 534657.74154376425, "POINT_Y": 178218.29820989072 }, "geometry": { "type": "Point", "coordinates": [ -0.061965091270395, 51.486890347499866 ] } },
{ "type": "Feature", "properties": { "FID_LL_PA": 5, "ID": "p106", "SOURCE_MAP": "EP2", "SOURCE_ID": "MANNIX_GAZ", "NAME": "St Mary Magdalen Bermondsey", "DIGI_SCALE": 1000, "NAME_1": "South Bermondsey", "F_AREA": 702673.84098900005, "ORIG_FID": 24, "POINT_X": 534299.11366832908, "POINT_Y": 178584.00617360137 }, "geometry": { "type": "Point", "coordinates": [ -0.066988118283916, 51.490261934464797 ] } },
{ "type": "Feature", "properties": { "FID_LL_PA": 5, "ID": "p106", "SOURCE_MAP": "EP2", "SOURCE_ID": "MANNIX_GAZ", "NAME": "St Mary Magdalen Bermondsey", "DIGI_SCALE": 1000, "NAME_1": "Grange", "F_AREA": 1028914.15044, "ORIG_FID": 25, "POINT_X": 533518.54890029691, "POINT_Y": 179078.65967852622 }, "geometry": { "type": "Point", "coordinates": [ -0.078037361323368, 51.494891779206228 ] } },
{ "type": "Feature", "properties": { "FID_LL_PA": 5, "ID": "p106", "SOURCE_MAP": "EP2", "SOURCE_ID": "MANNIX_GAZ", "NAME": "St Mary Magdalen Bermondsey", "DIGI_SCALE": 1000, "NAME_1": "Chaucer", "F_AREA": 133447.37942799999, "ORIG_FID": 26, "POINT_X": 533021.49508707505, "POINT_Y": 179418.72699380293 }, "geometry": { "type": "Point", "coordinates": [ -0.08506510942243, 51.498064837476704 ] } },
{ "type": "Feature", "properties": { "FID_LL_PA": 5, "ID": "p106", "SOURCE_MAP": "EP2", "SOURCE_ID": "MANNIX_GAZ", "NAME": "St Mary Magdalen Bermondsey", "DIGI_SCALE": 1000, "NAME_1": "Riverside", "F_AREA": 766370.54167900002, "ORIG_FID": 27, "POINT_X": 534279.25337225478, "POINT_Y": 179550.70052998327 }, "geometry": { "type": "Point", "coordinates": [ -0.066906518070027, 51.498953702452127 ] } },
{ "type": "Feature", "properties": { "FID_LL_PA": 5, "ID": "p106", "SOURCE_MAP": "EP2", "SOURCE_ID": "MANNIX_GAZ", "NAME": "St Mary Magdalen Bermondsey", "DIGI_SCALE": 1000, "NAME_1": "Rotherhithe", "F_AREA": 5120.1545182099999, "ORIG_FID": 28, "POINT_X": 534891.58840238024, "POINT_Y": 178868.95331761613 }, "geometry": { "type": "Point", "coordinates": [ -0.058350752515253, 51.49268165853573 ] } },
{ "type": "Feature", "properties": { "FID_LL_PA": 6, "ID": "p20", "SOURCE_MAP": "EP2", "SOURCE_ID": "MANNIX_GAZ", "NAME": "Newington", "DIGI_SCALE": 1000, "NAME_1": "Prince's", "F_AREA": 4270.0573755300002, "ORIG_FID": 29, "POINT_X": 531749.99199179094, "POINT_Y": 178685.92648035102 }, "geometry": { "type": "Point", "coordinates": [ -0.103645053110085, 51.49177699565189 ] } },
{ "type": "Feature", "properties": { "FID_LL_PA": 6, "ID": "p20", "SOURCE_MAP": "EP2", "SOURCE_ID": "MANNIX_GAZ", "NAME": "Newington", "DIGI_SCALE": 1000, "NAME_1": "Chaucer", "F_AREA": 438130.26644799998, "ORIG_FID": 30, "POINT_X": 532424.82307041809, "POINT_Y": 179291.04400884174 }, "geometry": { "type": "Point", "coordinates": [ -0.093703601218294, 51.497057378408499 ] } },
{ "type": "Feature", "properties": { "FID_LL_PA": 6, "ID": "p20", "SOURCE_MAP": "EP2", "SOURCE_ID": "MANNIX_GAZ", "NAME": "Newington", "DIGI_SCALE": 1000, "NAME_1": "Faraday", "F_AREA": 497134.50505699997, "ORIG_FID": 31, "POINT_X": 532776.16597856861, "POINT_Y": 178113.59620716423 }, "geometry": { "type": "Point", "coordinates": [ -0.089087758853566, 51.486393942090217 ] } },
{ "type": "Feature", "properties": { "FID_LL_PA": 6, "ID": "p20", "SOURCE_MAP": "EP2", "SOURCE_ID": "MANNIX_GAZ", "NAME": "Newington", "DIGI_SCALE": 1000, "NAME_1": "Cathedrals", "F_AREA": 54156.756540499999, "ORIG_FID": 32, "POINT_X": 531822.66258828249, "POINT_Y": 178820.83629105613 }, "geometry": { "type": "Point", "coordinates": [ -0.102548571419902, 51.492972445965279 ] } },
{ "type": "Feature", "properties": { "FID_LL_PA": 6, "ID": "p20", "SOURCE_MAP": "EP2", "SOURCE_ID": "MANNIX_GAZ", "NAME": "Newington", "DIGI_SCALE": 1000, "NAME_1": "Newington", "F_AREA": 798155.81287400005, "ORIG_FID": 33, "POINT_X": 531938.68225171231, "POINT_Y": 178118.69492456503 }, "geometry": { "type": "Point", "coordinates": [ -0.101140539045446, 51.486635589273646 ] } },
{ "type": "Feature", "properties": { "FID_LL_PA": 6, "ID": "p20", "SOURCE_MAP": "EP2", "SOURCE_ID": "MANNIX_GAZ", "NAME": "Newington", "DIGI_SCALE": 1000, "NAME_1": "East Walworth", "F_AREA": 608893.86720400001, "ORIG_FID": 34, "POINT_X": 532654.79640309233, "POINT_Y": 178626.27292740904 }, "geometry": { "type": "Point", "coordinates": [ -0.090642267139629, 51.491029560449533 ] } },
{ "type": "Feature", "properties": { "FID_LL_PA": 6, "ID": "p20", "SOURCE_MAP": "EP2", "SOURCE_ID": "MANNIX_GAZ", "NAME": "Newington", "DIGI_SCALE": 1000, "NAME_1": "Oval", "F_AREA": 8826.0988548799996, "ORIG_FID": 35, "POINT_X": 531587.79709218908, "POINT_Y": 177716.0064828787 }, "geometry": { "type": "Point", "coordinates": [ -0.10634112887783, 51.483098479395267 ] } },
{ "type": "Feature", "properties": { "FID_LL_PA": 6, "ID": "p20", "SOURCE_MAP": "EP2", "SOURCE_ID": "MANNIX_GAZ", "NAME": "Newington", "DIGI_SCALE": 1000, "NAME_1": "Camberwell Green", "F_AREA": 139352.26326199999, "ORIG_FID": 36, "POINT_X": 532270.42428799346, "POINT_Y": 177633.8706432879 }, "geometry": { "type": "Point", "coordinates": [ -0.096546884800773, 51.482201282517053 ] } },
{ "type": "Feature", "properties": { "FID_LL_PA": 7, "ID": "p105", "SOURCE_MAP": "EP2", "SOURCE_ID": "MANNIX_GAZ", "NAME": "St Mary Lambeth", "DIGI_SCALE": 1000, "NAME_1": "Vincent Square", "F_AREA": 5177.8167752700001, "ORIG_FID": 37, "POINT_X": 530171.19259094168, "POINT_Y": 178258.37996113114 }, "geometry": { "type": "Point", "coordinates": [ -0.126530680106953, 51.488300117605831 ] } },
{ "type": "Feature", "properties": { "FID_LL_PA": 7, "ID": "p105", "SOURCE_MAP": "EP2", "SOURCE_ID": "MANNIX_GAZ", "NAME": "St Mary Lambeth", "DIGI_SCALE": 1000, "NAME_1": "Vassall", "F_AREA": 276687.18259400001, "ORIG_FID": 38, "POINT_X": 531397.42073632311, "POINT_Y": 177161.26762797683 }, "geometry": { "type": "Point", "coordinates": [ -0.109287399740424, 51.478157485427801 ] } },
{ "type": "Feature", "properties": { "FID_LL_PA": 7, "ID": "p105", "SOURCE_MAP": "EP2", "SOURCE_ID": "MANNIX_GAZ", "NAME": "St Mary Lambeth", "DIGI_SCALE": 1000, "NAME_1": "Tachbrook", "F_AREA": 1071.22359525, "ORIG_FID": 39, "POINT_X": 530116.68564869557, "POINT_Y": 178167.98229482584 }, "geometry": { "type": "Point", "coordinates": [ -0.127348580514081, 51.487500275776256 ] } },
{ "type": "Feature", "properties": { "FID_LL_PA": 7, "ID": "p105", "SOURCE_MAP": "EP2", "SOURCE_ID": "MANNIX_GAZ", "NAME": "St Mary Lambeth", "DIGI_SCALE": 1000, "NAME_1": "Prince's", "F_AREA": 1157569.3372200001, "ORIG_FID": 40, "POINT_X": 530975.23907257523, "POINT_Y": 178487.49571190402 }, "geometry": { "type": "Point", "coordinates": [ -0.114871757337824, 51.49017360736616 ] } },
{ "type": "Feature", "properties": { "FID_LL_PA": 7, "ID": "p105", "SOURCE_MAP": "EP2", "SOURCE_ID": "MANNIX_GAZ", "NAME": "St Mary Lambeth", "DIGI_SCALE": 1000, "NAME_1": "St. James's", "F_AREA": 16246.719015799999, "ORIG_FID": 41, "POINT_X": 530470.10498144384, "POINT_Y": 179800.49842877127 }, "geometry": { "type": "Point", "coordinates": [ -0.121658304124139, 51.50208975491114 ] } },
{ "type": "Feature", "properties": { "FID_LL_PA": 7, "ID": "p105", "SOURCE_MAP": "EP2", "SOURCE_ID": "MANNIX_GAZ", "NAME": "St Mary Lambeth", "DIGI_SCALE": 1000, "NAME_1": "Farringdon Without", "F_AREA": 543.66234285600001, "ORIG_FID": 42, "POINT_X": 531186.53981611598, "POINT_Y": 180674.8882190194 }, "geometry": { "type": "Point", "coordinates": [ -0.111017412971705, 51.509781838394701 ] } },
{ "type": "Feature", "properties": { "FID_LL_PA": 7, "ID": "p105", "SOURCE_MAP": "EP2", "SOURCE_ID": "MANNIX_GAZ", "NAME": "St Mary Lambeth", "DIGI_SCALE": 1000, "NAME_1": "Bishop's", "F_AREA": 1421020.35093, "ORIG_FID": 43, "POINT_X": 530940.28847129922, "POINT_Y": 179740.10360298306 }, "geometry": { "type": "Point", "coordinates": [ -0.11491051921621, 51.501438382314518 ] } },
{ "type": "Feature", "properties": { "FID_LL_PA": 7, "ID": "p105", "SOURCE_MAP": "EP2", "SOURCE_ID": "MANNIX_GAZ", "NAME": "St Mary Lambeth", "DIGI_SCALE": 1000, "NAME_1": "Cathedrals", "F_AREA": 36688.674858300001, "ORIG_FID": 44, "POINT_X": 531536.90205162577, "POINT_Y": 178946.49095206894 }, "geometry": { "type": "Point", "coordinates": [ -0.106615609372966, 51.494168141332921 ] } },
{ "type": "Feature", "properties": { "FID_LL_PA": 7, "ID": "p105", "SOURCE_MAP": "EP2", "SOURCE_ID": "MANNIX_GAZ", "NAME": "St Mary Lambeth", "DIGI_SCALE": 1000, "NAME_1": "Stockwell", "F_AREA": 229128.00419499999, "ORIG_FID": 45, "POINT_X": 530612.3997223638, "POINT_Y": 177148.34842806496 }, "geometry": { "type": "Point", "coordinates": [ -0.120589803729672, 51.47822301503038 ] } },
{ "type": "Feature", "properties": { "FID_LL_PA": 7, "ID": "p105", "SOURCE_MAP": "EP2", "SOURCE_ID": "MANNIX_GAZ", "NAME": "St Mary Lambeth", "DIGI_SCALE": 1000, "NAME_1": "Newington", "F_AREA": 34164.821904700002, "ORIG_FID": 46, "POINT_X": 531627.60257484205, "POINT_Y": 177370.01284981519 }, "geometry": { "type": "Point", "coordinates": [ -0.105897043307777, 51.479979927826207 ] } },
{ "type": "Feature", "properties": { "FID_LL_PA": 7, "ID": "p105", "SOURCE_MAP": "EP2", "SOURCE_ID": "MANNIX_GAZ", "NAME": "St Mary Lambeth", "DIGI_SCALE": 1000, "NAME_1": "Queenstown", "F_AREA": 45373.168038000003, "ORIG_FID": 47, "POINT_X": 530067.15334690548, "POINT_Y": 177642.78156127594 }, "geometry": { "type": "Point", "coordinates": [ -0.128254856506828, 51.482791846501641 ] } },
{ "type": "Feature", "properties": { "FID_LL_PA": 7, "ID": "p105", "SOURCE_MAP": "EP2", "SOURCE_ID": "MANNIX_GAZ", "NAME": "St Mary Lambeth", "DIGI_SCALE": 1000, "NAME_1": "Oval", "F_AREA": 1262488.6974299999, "ORIG_FID": 48, "POINT_X": 530830.70021521393, "POINT_Y": 177637.78572633304 }, "geometry": { "type": "Point", "coordinates": [ -0.117266999091953, 51.482571011409163 ] } },
{ "type": "Feature", "properties": { "FID_LL_PA": 7, "ID": "p105", "SOURCE_MAP": "EP2", "SOURCE_ID": "MANNIX_GAZ", "NAME": "St Mary Lambeth", "DIGI_SCALE": 1000, "NAME_1": "Camberwell Green", "F_AREA": 64179.163455900001, "ORIG_FID": 49, "POINT_X": 531877.94375911355, "POINT_Y": 177203.50591309182 }, "geometry": { "type": "Point", "coordinates": [ -0.102356255345512, 51.47842534747906 ] } },
{ "type": "Feature", "properties": { "FID_LL_PA": 8, "ID": "0", "SOURCE_MAP": "EP1", "SOURCE_ID": "LANDMARK", "NAME": "St Thomas", "DIGI_SCALE": 1000, "NAME_1": "Grange", "F_AREA": 22063.157679399999, "ORIG_FID": 50, "POINT_X": 532782.69988573249, "POINT_Y": 180184.40816488676 }, "geometry": { "type": "Point", "coordinates": [ -0.088215225492604, 51.505001685582101 ] } },
{ "type": "Feature", "properties": { "FID_LL_PA": 8, "ID": "0", "SOURCE_MAP": "EP1", "SOURCE_ID": "LANDMARK", "NAME": "St Thomas", "DIGI_SCALE": 1000, "NAME_1": "Chaucer", "F_AREA": 11029.147192500001, "ORIG_FID": 51, "POINT_X": 532780.31419896241, "POINT_Y": 180108.59710886143 }, "geometry": { "type": "Point", "coordinates": [ -0.088278092851397, 51.504320973588619 ] } },
{ "type": "Feature", "properties": { "FID_LL_PA": 9, "ID": "p109", "SOURCE_MAP": "EP2", "SOURCE_ID": "MANNIX_GAZ", "NAME": "St Mary Rotherhithe", "DIGI_SCALE": 1000, "NAME_1": "Livesey", "F_AREA": 174097.11236699999, "ORIG_FID": 52, "POINT_X": 535199.69971929677, "POINT_Y": 178466.44592186995 }, "geometry": { "type": "Point", "coordinates": [ -0.054069351695944, 51.488991085730959 ] } },
{ "type": "Feature", "properties": { "FID_LL_PA": 9, "ID": "p109", "SOURCE_MAP": "EP2", "SOURCE_ID": "MANNIX_GAZ", "NAME": "St Mary Rotherhithe", "DIGI_SCALE": 1000, "NAME_1": "South Bermondsey", "F_AREA": 67717.969545400003, "ORIG_FID": 53, "POINT_X": 534908.73727232777, "POINT_Y": 178597.39423612133 }, "geometry": { "type": "Point", "coordinates": [ -0.058207582798786, 51.490237256686669 ] } },
{ "type": "Feature", "properties": { "FID_LL_PA": 9, "ID": "p109", "SOURCE_MAP": "EP2", "SOURCE_ID": "MANNIX_GAZ", "NAME": "St Mary Rotherhithe", "DIGI_SCALE": 1000, "NAME_1": "Surrey Docks", "F_AREA": 1859631.8883, "ORIG_FID": 54, "POINT_X": 536534.25007547718, "POINT_Y": 179764.28181383759 }, "geometry": { "type": "Point", "coordinates": [ -0.034357857948635, 51.500333309406415 ] } },
{ "type": "Feature", "properties": { "FID_LL_PA": 9, "ID": "p109", "SOURCE_MAP": "EP2", "SOURCE_ID": "MANNIX_GAZ", "NAME": "St Mary Rotherhithe", "DIGI_SCALE": 1000, "NAME_1": "Limehouse", "F_AREA": 6.8166912846400001, "ORIG_FID": 55, "POINT_X": 536354.48961240612, "POINT_Y": 180634.08526748233 }, "geometry": { "type": "Point", "coordinates": [ -0.036610057519283, 51.508192868554033 ] } },
{ "type": "Feature", "properties": { "FID_LL_PA": 9, "ID": "p109", "SOURCE_MAP": "EP2", "SOURCE_ID": "MANNIX_GAZ", "NAME": "St Mary Rotherhithe", "DIGI_SCALE": 1000, "NAME_1": "Riverside", "F_AREA": 15484.349562900001, "ORIG_FID": 56, "POINT_X": 534748.76597251184, "POINT_Y": 179798.92502654716 }, "geometry": { "type": "Point", "coordinates": [ -0.060051954642404, 51.501072699436918 ] } },
{ "type": "Feature", "properties": { "FID_LL_PA": 9, "ID": "p109", "SOURCE_MAP": "EP2", "SOURCE_ID": "MANNIX_GAZ", "NAME": "St Mary Rotherhithe", "DIGI_SCALE": 1000, "NAME_1": "Rotherhithe", "F_AREA": 1480346.0726000001, "ORIG_FID": 57, "POINT_X": 535376.84670299012, "POINT_Y": 179476.39665559866 }, "geometry": { "type": "Point", "coordinates": [ -0.05113238946069, 51.498024432046805 ] } },
{ "type": "Feature", "properties": { "FID_LL_PA": 9, "ID": "p109", "SOURCE_MAP": "EP2", "SOURCE_ID": "MANNIX_GAZ", "NAME": "St Mary Rotherhithe", "DIGI_SCALE": 1000, "NAME_1": "Evelyn", "F_AREA": 41833.336066000003, "ORIG_FID": 58, "POINT_X": 535449.16503173672, "POINT_Y": 178486.45747275837 }, "geometry": { "type": "Point", "coordinates": [ -0.050470790127292, 51.489111269358546 ] } },
{ "type": "Feature", "properties": { "FID_LL_PA": 9, "ID": "p109", "SOURCE_MAP": "EP2", "SOURCE_ID": "MANNIX_GAZ", "NAME": "St Mary Rotherhithe", "DIGI_SCALE": 1000, "NAME_1": "Shadwell", "F_AREA": 170.65372602599999, "ORIG_FID": 59, "POINT_X": 535685.1778231822, "POINT_Y": 180547.62226980366 }, "geometry": { "type": "Point", "coordinates": [ -0.046281612943858, 51.50757685478311 ] } },
{ "type": "Feature", "properties": { "FID_LL_PA": 9, "ID": "p109", "SOURCE_MAP": "EP2", "SOURCE_ID": "MANNIX_GAZ", "NAME": "St Mary Rotherhithe", "DIGI_SCALE": 1000, "NAME_1": "New Cross", "F_AREA": 3197.41514749, "ORIG_FID": 60, "POINT_X": 535250.58901671786, "POINT_Y": 178313.64029480144 }, "geometry": { "type": "Point", "coordinates": [ -0.05339532031212, 51.487605771806557 ] } },
{ "type": "Feature", "properties": { "FID_LL_PA": 9, "ID": "p109", "SOURCE_MAP": "EP2", "SOURCE_ID": "MANNIX_GAZ", "NAME": "St Mary Rotherhithe", "DIGI_SCALE": 1000, "NAME_1": "Millwall", "F_AREA": 2380.3825711, "ORIG_FID": 61, "POINT_X": 536848.13778559957, "POINT_Y": 179113.57598986104 }, "geometry": { "type": "Point", "coordinates": [ -0.03009072196437, 51.49441013217438 ] } },
{ "type": "Feature", "properties": { "FID_LL_PA": 9, "ID": "p109", "SOURCE_MAP": "EP2", "SOURCE_ID": "MANNIX_GAZ", "NAME": "St Mary Rotherhithe", "DIGI_SCALE": 1000, "NAME_1": "St. Katharine's and Wapping", "F_AREA": 2999.9297170200002, "ORIG_FID": 62, "POINT_X": 535547.32410662901, "POINT_Y": 180427.86643307656 }, "geometry": { "type": "Point", "coordinates": [ -0.048312718572561, 51.50653375411639 ] } },
{ "type": "Feature", "properties": { "FID_LL_PA": 10, "ID": "0", "SOURCE_MAP": "EP2", "SOURCE_ID": "LANDMARK", "NAME": "St Paul Deptford", "DIGI_SCALE": 1000, "NAME_1": "Livesey", "F_AREA": 39078.306910300002, "ORIG_FID": 63, "POINT_X": 535257.78202756029, "POINT_Y": 177902.69694851525 }, "geometry": { "type": "Point", "coordinates": [ -0.053449062630534, 51.483911195944529 ] } },
{ "type": "Feature", "properties": { "FID_LL_PA": 10, "ID": "0", "SOURCE_MAP": "EP2", "SOURCE_ID": "LANDMARK", "NAME": "St Paul Deptford", "DIGI_SCALE": 1000, "NAME_1": "Telegraph Hill", "F_AREA": 50257.208570100003, "ORIG_FID": 64, "POINT_X": 535461.15735613927, "POINT_Y": 177084.49618914537 }, "geometry": { "type": "Point", "coordinates": [ -0.050835448782891, 51.476509979518596 ] } },
{ "type": "Feature", "properties": { "FID_LL_PA": 10, "ID": "0", "SOURCE_MAP": "EP2", "SOURCE_ID": "LANDMARK", "NAME": "St Paul Deptford", "DIGI_SCALE": 1000, "NAME_1": "Surrey Docks", "F_AREA": 33720.696039900002, "ORIG_FID": 65, "POINT_X": 536455.65441732015, "POINT_Y": 178924.35270560533 }, "geometry": { "type": "Point", "coordinates": [ -0.035813973285258, 51.492804516572505 ] } },
{ "type": "Feature", "properties": { "FID_LL_PA": 10, "ID": "0", "SOURCE_MAP": "EP2", "SOURCE_ID": "LANDMARK", "NAME": "St Paul Deptford", "DIGI_SCALE": 1000, "NAME_1": "Nunhead", "F_AREA": 18073.017799900001, "ORIG_FID": 66, "POINT_X": 535289.13472287077, "POINT_Y": 177134.38108611479 }, "geometry": { "type": "Point", "coordinates": [ -0.053291842108592, 51.476999387261458 ] } },
{ "type": "Feature", "properties": { "FID_LL_PA": 10, "ID": "0", "SOURCE_MAP": "EP2", "SOURCE_ID": "LANDMARK", "NAME": "St Paul Deptford", "DIGI_SCALE": 1000, "NAME_1": "Rotherhithe", "F_AREA": 3964.53232527, "ORIG_FID": 67, "POINT_X": 535975.27782155201, "POINT_Y": 178627.2243169006 }, "geometry": { "type": "Point", "coordinates": [ -0.042843577859458, 51.490250081114937 ] } },
{ "type": "Feature", "properties": { "FID_LL_PA": 10, "ID": "0", "SOURCE_MAP": "EP2", "SOURCE_ID": "LANDMARK", "NAME": "St Paul Deptford", "DIGI_SCALE": 1000, "NAME_1": "Brockley", "F_AREA": 18281.774323500002, "ORIG_FID": 68, "POINT_X": 536834.18833403476, "POINT_Y": 177018.14247504994 }, "geometry": { "type": "Point", "coordinates": [ -0.031102826469578, 51.475583579391241 ] } },
{ "type": "Feature", "properties": { "FID_LL_PA": 10, "ID": "0", "SOURCE_MAP": "EP2", "SOURCE_ID": "LANDMARK", "NAME": "St Paul Deptford", "DIGI_SCALE": 1000, "NAME_1": "Evelyn", "F_AREA": 1437971.72835, "ORIG_FID": 69, "POINT_X": 536425.42000862863, "POINT_Y": 178298.39083509706 }, "geometry": { "type": "Point", "coordinates": [ -0.036490909522399, 51.48718679061858 ] } },
{ "type": "Feature", "properties": { "FID_LL_PA": 10, "ID": "0", "SOURCE_MAP": "EP2", "SOURCE_ID": "LANDMARK", "NAME": "St Paul Deptford", "DIGI_SCALE": 1000, "NAME_1": "New Cross", "F_AREA": 1707096.48376, "ORIG_FID": 70, "POINT_X": 535861.0749343168, "POINT_Y": 177563.50607329793 }, "geometry": { "type": "Point", "coordinates": [ -0.044896413921379, 51.480718673148658 ] } },
{ "type": "Feature", "properties": { "FID_LL_PA": 10, "ID": "0", "SOURCE_MAP": "EP2", "SOURCE_ID": "LANDMARK", "NAME": "St Paul Deptford", "DIGI_SCALE": 1000, "NAME_1": "Greenwich West", "F_AREA": 13233.369438600001, "ORIG_FID": 71, "POINT_X": 537487.90584214032, "POINT_Y": 177538.62981279381 }, "geometry": { "type": "Point", "coordinates": [ -0.02149350795662, 51.480102401983459 ] } },
{ "type": "Feature", "properties": { "FID_LL_PA": 10, "ID": "0", "SOURCE_MAP": "EP2", "SOURCE_ID": "LANDMARK", "NAME": "St Paul Deptford", "DIGI_SCALE": 1000, "NAME_1": "Millwall", "F_AREA": 3380.1417568500001, "ORIG_FID": 72, "POINT_X": 536905.94316142239, "POINT_Y": 178873.46754603833 }, "geometry": { "type": "Point", "coordinates": [ -0.02935161977075, 51.492238499049563 ] } },
{ "type": "Feature", "properties": { "FID_LL_PA": 11, "ID": "0", "SOURCE_MAP": "EP2", "SOURCE_ID": "LANDMARK", "NAME": "St Nicholas Deptford", "DIGI_SCALE": 1000, "NAME_1": "Evelyn", "F_AREA": 294122.61157200002, "ORIG_FID": 73, "POINT_X": 537001.09345609881, "POINT_Y": 178191.59889346734 }, "geometry": { "type": "Point", "coordinates": [ -0.028246299654711, 51.486088097444735 ] } },
{ "type": "Feature", "properties": { "FID_LL_PA": 11, "ID": "0", "SOURCE_MAP": "EP2", "SOURCE_ID": "LANDMARK", "NAME": "St Nicholas Deptford", "DIGI_SCALE": 1000, "NAME_1": "New Cross", "F_AREA": 8253.2749634400006, "ORIG_FID": 74, "POINT_X": 537748.01794349682, "POINT_Y": 177579.07677251473 }, "geometry": { "type": "Point", "coordinates": [ -0.017734405118972, 51.480402636923827 ] } },
{ "type": "Feature", "properties": { "FID_LL_PA": 11, "ID": "0", "SOURCE_MAP": "EP2", "SOURCE_ID": "LANDMARK", "NAME": "St Nicholas Deptford", "DIGI_SCALE": 1000, "NAME_1": "Greenwich West", "F_AREA": 307746.150486, "ORIG_FID": 75, "POINT_X": 537498.18143130187, "POINT_Y": 177871.01399529539 }, "geometry": { "type": "Point", "coordinates": [ -0.02121634024661, 51.483086752705276 ] } },
{ "type": "Feature", "properties": { "FID_LL_PA": 11, "ID": "0", "SOURCE_MAP": "EP2", "SOURCE_ID": "LANDMARK", "NAME": "St Nicholas Deptford", "DIGI_SCALE": 1000, "NAME_1": "Millwall", "F_AREA": 2476.9172336000001, "ORIG_FID": 76, "POINT_X": 537255.7257518759, "POINT_Y": 178346.18092155084 }, "geometry": { "type": "Point", "coordinates": [ -0.024521283514332, 51.487415505805984 ] } },
{ "type": "Feature", "properties": { "FID_LL_PA": 12, "ID": "0", "SOURCE_MAP": "EP2", "SOURCE_ID": "LANDMARK", "NAME": "Greenwich", "DIGI_SCALE": 1000, "NAME_1": "New Cross", "F_AREA": 6312.2931907299999, "ORIG_FID": 77, "POINT_X": 537481.04299991019, "POINT_Y": 177024.27951206081 }, "geometry": { "type": "Point", "coordinates": [ -0.021792273386382, 51.475482047593687 ] } },
{ "type": "Feature", "properties": { "FID_LL_PA": 12, "ID": "0", "SOURCE_MAP": "EP2", "SOURCE_ID": "LANDMARK", "NAME": "Greenwich", "DIGI_SCALE": 1000, "NAME_1": "Greenwich West", "F_AREA": 328724.70712400001, "ORIG_FID": 78, "POINT_X": 537854.34435622301, "POINT_Y": 177524.79117697664 }, "geometry": { "type": "Point", "coordinates": [ -0.016225393745117, 51.479888941394165 ] } },
{ "type": "Feature", "properties": { "FID_LL_PA": 13, "ID": "p67", "SOURCE_MAP": "EP2", "SOURCE_ID": "MANNIX_GAZ", "NAME": "St George Southwark", "DIGI_SCALE": 1000, "NAME_1": "Grange", "F_AREA": 57769.422779599998, "ORIG_FID": 79, "POINT_X": 533299.11405922379, "POINT_Y": 178683.99105844647 }, "geometry": { "type": "Point", "coordinates": [ -0.081345369573683, 51.491396851255558 ] } },
{ "type": "Feature", "properties": { "FID_LL_PA": 13, "ID": "p67", "SOURCE_MAP": "EP2", "SOURCE_ID": "MANNIX_GAZ", "NAME": "St George Southwark", "DIGI_SCALE": 1000, "NAME_1": "Chaucer", "F_AREA": 187661.16677400001, "ORIG_FID": 80, "POINT_X": 532586.23164130002, "POINT_Y": 179787.19144169241 }, "geometry": { "type": "Point", "coordinates": [ -0.091193484666292, 51.501478195306845 ] } },
{ "type": "Feature", "properties": { "FID_LL_PA": 13, "ID": "p67", "SOURCE_MAP": "EP2", "SOURCE_ID": "MANNIX_GAZ", "NAME": "St George Southwark", "DIGI_SCALE": 1000, "NAME_1": "Bishop's", "F_AREA": 21911.013212999998, "ORIG_FID": 81, "POINT_X": 531316.53636999801, "POINT_Y": 179429.43389110826 }, "geometry": { "type": "Point", "coordinates": [ -0.109608541533817, 51.498559322266374 ] } },
{ "type": "Feature", "properties": { "FID_LL_PA": 13, "ID": "p67", "SOURCE_MAP": "EP2", "SOURCE_ID": "MANNIX_GAZ", "NAME": "St George Southwark", "DIGI_SCALE": 1000, "NAME_1": "Cathedrals", "F_AREA": 738886.85397199995, "ORIG_FID": 82, "POINT_X": 531569.68200000189, "POINT_Y": 179388.23567493632 }, "geometry": { "type": "Point", "coordinates": [ -0.105979142477736, 51.498130283609498 ] } },
{ "type": "Feature", "properties": { "FID_LL_PA": 13, "ID": "p67", "SOURCE_MAP": "EP2", "SOURCE_ID": "MANNIX_GAZ", "NAME": "St George Southwark", "DIGI_SCALE": 1000, "NAME_1": "East Walworth", "F_AREA": 146965.77343500001, "ORIG_FID": 83, "POINT_X": 532891.41950855684, "POINT_Y": 178884.60908429138 }, "geometry": { "type": "Point", "coordinates": [ -0.087138829985633, 51.493295576481614 ] } },
{ "type": "Feature", "properties": { "FID_LL_PA": 14, "ID": "0", "SOURCE_MAP": "EP2", "SOURCE_ID": "LANDMARK", "NAME": "Camberwell", "DIGI_SCALE": 1000, "NAME_1": "Livesey", "F_AREA": 1119722.97731, "ORIG_FID": 84, "POINT_X": 534575.6222954886, "POINT_Y": 177745.35020759143 }, "geometry": { "type": "Point", "coordinates": [ -0.063327183248475, 51.48265980288852 ] } },
{ "type": "Feature", "properties": { "FID_LL_PA": 14, "ID": "0", "SOURCE_MAP": "EP2", "SOURCE_ID": "LANDMARK", "NAME": "Camberwell", "DIGI_SCALE": 1000, "NAME_1": "South Bermondsey", "F_AREA": 203226.521637, "ORIG_FID": 85, "POINT_X": 534049.85173045378, "POINT_Y": 178213.82215728797 }, "geometry": { "type": "Point", "coordinates": [ -0.070716656569857, 51.486994413426146 ] } },
{ "type": "Feature", "properties": { "FID_LL_PA": 14, "ID": "0", "SOURCE_MAP": "EP2", "SOURCE_ID": "LANDMARK", "NAME": "Camberwell", "DIGI_SCALE": 1000, "NAME_1": "Grange", "F_AREA": 371.34939726800002, "ORIG_FID": 86, "POINT_X": 533557.75584282819, "POINT_Y": 178439.83439937793 }, "geometry": { "type": "Point", "coordinates": [ -0.077714427723549, 51.489141780184582 ] } },
{ "type": "Feature", "properties": { "FID_LL_PA": 14, "ID": "0", "SOURCE_MAP": "EP2", "SOURCE_ID": "LANDMARK", "NAME": "Camberwell", "DIGI_SCALE": 1000, "NAME_1": "Vassall", "F_AREA": 15309.390619199999, "ORIG_FID": 87, "POINT_X": 531979.94042516965, "POINT_Y": 177039.22570632584 }, "geometry": { "type": "Point", "coordinates": [ -0.100949696963653, 51.476925268536434 ] } },
{ "type": "Feature", "properties": { "FID_LL_PA": 14, "ID": "0", "SOURCE_MAP": "EP2", "SOURCE_ID": "LANDMARK", "NAME": "Camberwell", "DIGI_SCALE": 1000, "NAME_1": "Peckham", "F_AREA": 634088.16314700001, "ORIG_FID": 88, "POINT_X": 533843.81201975886, "POINT_Y": 177289.89451475814 }, "geometry": { "type": "Point", "coordinates": [ -0.074032225762494, 51.4787403823575 ] } },
{ "type": "Feature", "properties": { "FID_LL_PA": 14, "ID": "0", "SOURCE_MAP": "EP2", "SOURCE_ID": "LANDMARK", "NAME": "Camberwell", "DIGI_SCALE": 1000, "NAME_1": "Nunhead", "F_AREA": 94742.7152069, "ORIG_FID": 89, "POINT_X": 535077.7268355675, "POINT_Y": 177136.38027688861 }, "geometry": { "type": "Point", "coordinates": [ -0.056333367130719, 51.477067824918777 ] } },
{ "type": "Feature", "properties": { "FID_LL_PA": 14, "ID": "0", "SOURCE_MAP": "EP2", "SOURCE_ID": "LANDMARK", "NAME": "Camberwell", "DIGI_SCALE": 1000, "NAME_1": "Faraday", "F_AREA": 380805.650402, "ORIG_FID": 90, "POINT_X": 532921.09942066111, "POINT_Y": 177674.06376597472 }, "geometry": { "type": "Point", "coordinates": [ -0.087166909419466, 51.482410080498084 ] } },
{ "type": "Feature", "properties": { "FID_LL_PA": 14, "ID": "0", "SOURCE_MAP": "EP2", "SOURCE_ID": "LANDMARK", "NAME": "Camberwell", "DIGI_SCALE": 1000, "NAME_1": "East Walworth", "F_AREA": 389479.01144799998, "ORIG_FID": 91, "POINT_X": 533798.54704680014, "POINT_Y": 177942.94450040907 }, "geometry": { "type": "Point", "coordinates": [ -0.074436466326006, 51.484619656635914 ] } },
{ "type": "Feature", "properties": { "FID_LL_PA": 14, "ID": "0", "SOURCE_MAP": "EP2", "SOURCE_ID": "LANDMARK", "NAME": "Camberwell", "DIGI_SCALE": 1000, "NAME_1": "New Cross", "F_AREA": 5344.5304345599998, "ORIG_FID": 92, "POINT_X": 535246.64854853787, "POINT_Y": 177354.34139101207 }, "geometry": { "type": "Point", "coordinates": [ -0.053819103864953, 51.478986167756375 ] } },
{ "type": "Feature", "properties": { "FID_LL_PA": 14, "ID": "0", "SOURCE_MAP": "EP2", "SOURCE_ID": "LANDMARK", "NAME": "Camberwell", "DIGI_SCALE": 1000, "NAME_1": "Camberwell Green", "F_AREA": 381146.47434299998, "ORIG_FID": 93, "POINT_X": 532211.64836366754, "POINT_Y": 177233.78751970828 }, "geometry": { "type": "Point", "coordinates": [ -0.097542448318563, 51.478619651577901 ] } },
{ "type": "Feature", "properties": { "FID_LL_PA": 14, "ID": "0", "SOURCE_MAP": "EP2", "SOURCE_ID": "LANDMARK", "NAME": "Camberwell", "DIGI_SCALE": 1000, "NAME_1": "Brunswick Park", "F_AREA": 208099.60508099999, "ORIG_FID": 94, "POINT_X": 533128.74537768308, "POINT_Y": 177255.84921388887 }, "geometry": { "type": "Point", "coordinates": [ -0.084335844498128, 51.478603019088041 ] } },
{ "type": "Feature", "properties": { "FID_LL_PA": 15, "ID": "0", "SOURCE_MAP": "EP2", "SOURCE_ID": "LANDMARK", "NAME": "Battersea", "DIGI_SCALE": 1000, "NAME_1": "Tachbrook", "F_AREA": 1057.3159223800001, "ORIG_FID": 95, "POINT_X": 529458.35603490099, "POINT_Y": 177758.37282997184 }, "geometry": { "type": "Point", "coordinates": [ -0.136975001078099, 51.48397017782554 ] } },
{ "type": "Feature", "properties": { "FID_LL_PA": 15, "ID": "0", "SOURCE_MAP": "EP2", "SOURCE_ID": "LANDMARK", "NAME": "Battersea", "DIGI_SCALE": 1000, "NAME_1": "Cremorne", "F_AREA": 613.96450647899997, "ORIG_FID": 96, "POINT_X": 527185.17236240767, "POINT_Y": 177466.72165736929 }, "geometry": { "type": "Point", "coordinates": [ -0.169799462659284, 51.481864414701704 ] } },
{ "type": "Feature", "properties": { "FID_LL_PA": 15, "ID": "0", "SOURCE_MAP": "EP2", "SOURCE_ID": "LANDMARK", "NAME": "Battersea", "DIGI_SCALE": 1000, "NAME_1": "Royal Hospital", "F_AREA": 68.361649457200002, "ORIG_FID": 97, "POINT_X": 527790.92695951089, "POINT_Y": 177613.500459034 }, "geometry": { "type": "Point", "coordinates": [ -0.161027755530085, 51.483047089073807 ] } },
{ "type": "Feature", "properties": { "FID_LL_PA": 15, "ID": "0", "SOURCE_MAP": "EP2", "SOURCE_ID": "LANDMARK", "NAME": "Battersea", "DIGI_SCALE": 1000, "NAME_1": "Churchill", "F_AREA": 1691.0337774499999, "ORIG_FID": 98, "POINT_X": 529259.89172952715, "POINT_Y": 177742.18424620479 }, "geometry": { "type": "Point", "coordinates": [ -0.139837517868727, 51.483870045805816 ] } },
{ "type": "Feature", "properties": { "FID_LL_PA": 15, "ID": "0", "SOURCE_MAP": "EP2", "SOURCE_ID": "LANDMARK", "NAME": "Battersea", "DIGI_SCALE": 1000, "NAME_1": "Stockwell", "F_AREA": 778.77826596900002, "ORIG_FID": 99, "POINT_X": 529762.08153194375, "POINT_Y": 177036.70575493947 }, "geometry": { "type": "Point", "coordinates": [ -0.132868234533817, 51.477415222965647 ] } },
{ "type": "Feature", "properties": { "FID_LL_PA": 15, "ID": "0", "SOURCE_MAP": "EP2", "SOURCE_ID": "LANDMARK", "NAME": "Battersea", "DIGI_SCALE": 1000, "NAME_1": "Queenstown", "F_AREA": 1824427.7077200001, "ORIG_FID": 100, "POINT_X": 528065.56313425861, "POINT_Y": 177336.97950437479 }, "geometry": { "type": "Point", "coordinates": [ -0.157174994528759, 51.480499980447348 ] } },
{ "type": "Feature", "properties": { "FID_LL_PA": 15, "ID": "0", "SOURCE_MAP": "EP2", "SOURCE_ID": "LANDMARK", "NAME": "Battersea", "DIGI_SCALE": 1000, "NAME_1": "Oval", "F_AREA": 3754.8477654899998, "ORIG_FID": 101, "POINT_X": 530050.61646093521, "POINT_Y": 177911.55617752299 }, "geometry": { "type": "Point", "coordinates": [ -0.128393978462555, 51.48521103913663 ] } },
{ "type": "Feature", "properties": { "FID_LL_PA": 15, "ID": "0", "SOURCE_MAP": "EP2", "SOURCE_ID": "LANDMARK", "NAME": "Battersea", "DIGI_SCALE": 1000, "NAME_1": "St. Mary's Park", "F_AREA": 226229.26978100001, "ORIG_FID": 102, "POINT_X": 527253.03712951858, "POINT_Y": 177223.86972639896 }, "geometry": { "type": "Point", "coordinates": [ -0.168910095992032, 51.479666679282673 ] } },
{ "type": "Feature", "properties": { "FID_LL_PA": 16, "ID": "p56", "SOURCE_MAP": "EP2", "SOURCE_ID": "MANNIX_GAZ", "NAME": "St Clement Danes", "DIGI_SCALE": 1000, "NAME_1": "St. James's", "F_AREA": 213624.99910099999, "ORIG_FID": 103, "POINT_X": 530855.86830000114, "POINT_Y": 181069.25411530584 }, "geometry": { "type": "Point", "coordinates": [ -0.115633320587222, 51.513402441807557 ] } },
{ "type": "Feature", "properties": { "FID_LL_PA": 16, "ID": "p56", "SOURCE_MAP": "EP2", "SOURCE_ID": "MANNIX_GAZ", "NAME": "St Clement Danes", "DIGI_SCALE": 1000, "NAME_1": "Farringdon Without", "F_AREA": 128.8944906, "ORIG_FID": 104, "POINT_X": 531087.37436100282, "POINT_Y": 180980.84068385884 }, "geometry": { "type": "Point", "coordinates": [ -0.11233188631013, 51.512554292450659 ] } },
{ "type": "Feature", "properties": { "FID_LL_PA": 16, "ID": "p56", "SOURCE_MAP": "EP2", "SOURCE_ID": "MANNIX_GAZ", "NAME": "St Clement Danes", "DIGI_SCALE": 1000, "NAME_1": "Holborn and Covent Garden", "F_AREA": 9140.5433580900008, "ORIG_FID": 105, "POINT_X": 530977.92029195838, "POINT_Y": 181283.88126436993 }, "geometry": { "type": "Point", "coordinates": [ -0.113795784651302, 51.515302947489545 ] } },
{ "type": "Feature", "properties": { "FID_LL_PA": 17, "ID": "p56", "SOURCE_MAP": "EP2", "SOURCE_ID": "MANNIX_GAZ", "NAME": "St Clement Danes", "DIGI_SCALE": 1000, "NAME_1": "St. James's", "F_AREA": 32890.671512000001, "ORIG_FID": 106, "POINT_X": 530641.97660000063, "POINT_Y": 180519.05223785713 }, "geometry": { "type": "Point", "coordinates": [ -0.118917599320412, 51.508507452381309 ] } },
{ "type": "Feature", "properties": { "FID_LL_PA": 18, "ID": "0", "SOURCE_MAP": "EP2", "SOURCE_ID": "LANDMARK", "NAME": "Lincoln's Inn", "DIGI_SCALE": 1000, "NAME_1": "Holborn and Covent Garden", "F_AREA": 33894.858921599996, "ORIG_FID": 107, "POINT_X": 530965.13705000002, "POINT_Y": 181460.98098564893 }, "geometry": { "type": "Point", "coordinates": [ -0.113914160931017, 51.516897426161449 ] } },
{ "type": "Feature", "properties": { "FID_LL_PA": 19, "ID": "p70", "SOURCE_MAP": "EP2-EP1", "SOURCE_ID": "MANNIX_GAZ", "NAME": "St Giles in the Fields", "DIGI_SCALE": 1000, "NAME_1": "West End", "F_AREA": 113.816627418, "ORIG_FID": 108, "POINT_X": 529895.7864621589, "POINT_Y": 181084.47203825787 }, "geometry": { "type": "Point", "coordinates": [ -0.129455464426428, 51.513760544010438 ] } },
{ "type": "Feature", "properties": { "FID_LL_PA": 19, "ID": "p70", "SOURCE_MAP": "EP2-EP1", "SOURCE_ID": "MANNIX_GAZ", "NAME": "St Giles in the Fields", "DIGI_SCALE": 1000, "NAME_1": "St. James's", "F_AREA": 23099.9083722, "ORIG_FID": 109, "POINT_X": 530505.36139477976, "POINT_Y": 181158.9449295029 }, "geometry": { "type": "Point", "coordinates": [ -0.120648363197688, 51.514289454673417 ] } },
{ "type": "Feature", "properties": { "FID_LL_PA": 19, "ID": "p70", "SOURCE_MAP": "EP2-EP1", "SOURCE_ID": "MANNIX_GAZ", "NAME": "St Giles in the Fields", "DIGI_SCALE": 1000, "NAME_1": "Bloomsbury", "F_AREA": 156983.947059, "ORIG_FID": 110, "POINT_X": 529759.77588571887, "POINT_Y": 181739.44581361488 }, "geometry": { "type": "Point", "coordinates": [ -0.131173491594382, 51.519677790813148 ] } },
{ "type": "Feature", "properties": { "FID_LL_PA": 19, "ID": "p70", "SOURCE_MAP": "EP2-EP1", "SOURCE_ID": "MANNIX_GAZ", "NAME": "St Giles in the Fields", "DIGI_SCALE": 1000, "NAME_1": "Holborn and Covent Garden", "F_AREA": 313555.60780100001, "ORIG_FID": 111, "POINT_X": 530098.62425000034, "POINT_Y": 181168.41724572144 }, "geometry": { "type": "Point", "coordinates": [ -0.126503082225099, 51.514468300563749 ] } },
{ "type": "Feature", "properties": { "FID_LL_PA": 20, "ID": "0", "SOURCE_MAP": "EP2", "SOURCE_ID": "LANDMARK", "NAME": "St Pancras", "DIGI_SCALE": 1000, "NAME_1": "West End", "F_AREA": 8760.0722860700007, "ORIG_FID": 112, "POINT_X": 529463.65424478613, "POINT_Y": 181615.69406520016 }, "geometry": { "type": "Point", "coordinates": [ -0.135484460450243, 51.518633559287991 ] } },
{ "type": "Feature", "properties": { "FID_LL_PA": 20, "ID": "0", "SOURCE_MAP": "EP2", "SOURCE_ID": "LANDMARK", "NAME": "St Pancras", "DIGI_SCALE": 1000, "NAME_1": "St. Pancras and Somers Town", "F_AREA": 188927.54178299999, "ORIG_FID": 113, "POINT_X": 529869.49252794031, "POINT_Y": 182861.06922662631 }, "geometry": { "type": "Point", "coordinates": [ -0.129179970303085, 51.529732214228716 ] } },
{ "type": "Feature", "properties": { "FID_LL_PA": 20, "ID": "0", "SOURCE_MAP": "EP2", "SOURCE_ID": "LANDMARK", "NAME": "St Pancras", "DIGI_SCALE": 1000, "NAME_1": "Clerkenwell", "F_AREA": 1954.6881218200001, "ORIG_FID": 114, "POINT_X": 530941.92696660757, "POINT_Y": 182391.66443590261 }, "geometry": { "type": "Point", "coordinates": [ -0.113902945071459, 51.525266441400163 ] } },
{ "type": "Feature", "properties": { "FID_LL_PA": 20, "ID": "0", "SOURCE_MAP": "EP2", "SOURCE_ID": "LANDMARK", "NAME": "St Pancras", "DIGI_SCALE": 1000, "NAME_1": "Bloomsbury", "F_AREA": 520560.50892200001, "ORIG_FID": 115, "POINT_X": 529489.36918671709, "POINT_Y": 182091.63581792451 }, "geometry": { "type": "Point", "coordinates": [ -0.134939318464603, 51.522904799843673 ] } },
{ "type": "Feature", "properties": { "FID_LL_PA": 20, "ID": "0", "SOURCE_MAP": "EP2", "SOURCE_ID": "LANDMARK", "NAME": "St Pancras", "DIGI_SCALE": 1000, "NAME_1": "Caledonian", "F_AREA": 742.89114187500002, "ORIG_FID": 116, "POINT_X": 530350.24913195521, "POINT_Y": 182994.1770539172 }, "geometry": { "type": "Point", "coordinates": [ -0.122204105195124, 51.530817724531516 ] } },
{ "type": "Feature", "properties": { "FID_LL_PA": 20, "ID": "0", "SOURCE_MAP": "EP2", "SOURCE_ID": "LANDMARK", "NAME": "St Pancras", "DIGI_SCALE": 1000, "NAME_1": "Regent's Park", "F_AREA": 699074.25434800005, "ORIG_FID": 117, "POINT_X": 529081.13286046591, "POINT_Y": 182671.22584284469 }, "geometry": { "type": "Point", "coordinates": [ -0.140608105459251, 51.528206755057909 ] } },
{ "type": "Feature", "properties": { "FID_LL_PA": 20, "ID": "0", "SOURCE_MAP": "EP2", "SOURCE_ID": "LANDMARK", "NAME": "St Pancras", "DIGI_SCALE": 1000, "NAME_1": "King's Cross", "F_AREA": 596847.20132999995, "ORIG_FID": 118, "POINT_X": 530423.06592799723, "POINT_Y": 182588.72703360952 }, "geometry": { "type": "Point", "coordinates": [ -0.121304950851481, 51.527157315460499 ] } },
{ "type": "Feature", "properties": { "FID_LL_PA": 20, "ID": "0", "SOURCE_MAP": "EP2", "SOURCE_ID": "LANDMARK", "NAME": "St Pancras", "DIGI_SCALE": 1000, "NAME_1": "Marylebone High Street", "F_AREA": 352.08800712700003, "ORIG_FID": 119, "POINT_X": 528933.67116439156, "POINT_Y": 182184.44593835808 }, "geometry": { "type": "Point", "coordinates": [ -0.142910655646119, 51.523865869035944 ] } },
{ "type": "Feature", "properties": { "FID_LL_PA": 20, "ID": "0", "SOURCE_MAP": "EP2", "SOURCE_ID": "LANDMARK", "NAME": "St Pancras", "DIGI_SCALE": 1000, "NAME_1": "Holborn and Covent Garden", "F_AREA": 76081.405698100003, "ORIG_FID": 120, "POINT_X": 530817.4199750023, "POINT_Y": 182204.77925440297 }, "geometry": { "type": "Point", "coordinates": [ -0.115765963448212, 51.523615814337973 ] } },
{ "type": "Feature", "properties": { "FID_LL_PA": 21, "ID": "p118", "SOURCE_MAP": "EP2", "SOURCE_ID": "MANNIX_GAZ", "NAME": "St Marylebone", "DIGI_SCALE": 1000, "NAME_1": "West End", "F_AREA": 428842.30310199998, "ORIG_FID": 121, "POINT_X": 529106.32295974065, "POINT_Y": 181489.00680212304 }, "geometry": { "type": "Point", "coordinates": [ -0.14067798020551, 51.517576766142156 ] } },
{ "type": "Feature", "properties": { "FID_LL_PA": 21, "ID": "p118", "SOURCE_MAP": "EP2", "SOURCE_ID": "MANNIX_GAZ", "NAME": "St Marylebone", "DIGI_SCALE": 1000, "NAME_1": "Church Street", "F_AREA": 289822.295851, "ORIG_FID": 122, "POINT_X": 527116.75096583087, "POINT_Y": 182100.62712315284 }, "geometry": { "type": "Point", "coordinates": [ -0.169115928118117, 51.523524086631369 ] } },
{ "type": "Feature", "properties": { "FID_LL_PA": 21, "ID": "p118", "SOURCE_MAP": "EP2", "SOURCE_ID": "MANNIX_GAZ", "NAME": "St Marylebone", "DIGI_SCALE": 1000, "NAME_1": "Bloomsbury", "F_AREA": 5079.3711626200002, "ORIG_FID": 123, "POINT_X": 529295.52139120456, "POINT_Y": 181737.5386708118 }, "geometry": { "type": "Point", "coordinates": [ -0.137861653114669, 51.519767011224758 ] } },
{ "type": "Feature", "properties": { "FID_LL_PA": 21, "ID": "p118", "SOURCE_MAP": "EP2", "SOURCE_ID": "MANNIX_GAZ", "NAME": "St Marylebone", "DIGI_SCALE": 1000, "NAME_1": "Hyde Park", "F_AREA": 425.365225651, "ORIG_FID": 124, "POINT_X": 527629.69656277075, "POINT_Y": 181110.77223799936 }, "geometry": { "type": "Point", "coordinates": [ -0.162084498617332, 51.514512880588882 ] } },
{ "type": "Feature", "properties": { "FID_LL_PA": 21, "ID": "p118", "SOURCE_MAP": "EP2", "SOURCE_ID": "MANNIX_GAZ", "NAME": "St Marylebone", "DIGI_SCALE": 1000, "NAME_1": "Regent's Park", "F_AREA": 53728.877915099998, "ORIG_FID": 125, "POINT_X": 528784.64997263625, "POINT_Y": 182269.52024171129 }, "geometry": { "type": "Point", "coordinates": [ -0.14502640318824, 51.524664376280271 ] } },
{ "type": "Feature", "properties": { "FID_LL_PA": 21, "ID": "p118", "SOURCE_MAP": "EP2", "SOURCE_ID": "MANNIX_GAZ", "NAME": "St Marylebone", "DIGI_SCALE": 1000, "NAME_1": "Marylebone High Street", "F_AREA": 1000846.7729100001, "ORIG_FID": 126, "POINT_X": 528429.11074077431, "POINT_Y": 181699.83201767318 }, "geometry": { "type": "Point", "coordinates": [ -0.150355901918374, 51.519625623943284 ] } },
{ "type": "Feature", "properties": { "FID_LL_PA": 21, "ID": "p118", "SOURCE_MAP": "EP2", "SOURCE_ID": "MANNIX_GAZ", "NAME": "St Marylebone", "DIGI_SCALE": 1000, "NAME_1": "Bryanston and Dorset Square", "F_AREA": 720821.65876300004, "ORIG_FID": 127, "POINT_X": 527624.20547595154, "POINT_Y": 181671.72471464984 }, "geometry": { "type": "Point", "coordinates": [ -0.161960656172596, 51.519555292208679 ] } },
{ "type": "Feature", "properties": { "FID_LL_PA": 21, "ID": "p118", "SOURCE_MAP": "EP2", "SOURCE_ID": "MANNIX_GAZ", "NAME": "St Marylebone", "DIGI_SCALE": 1000, "NAME_1": "Regent's Park", "F_AREA": 1107546.71263, "ORIG_FID": 128, "POINT_X": 527849.76460150257, "POINT_Y": 182606.60224680603 }, "geometry": { "type": "Point", "coordinates": [ -0.158372570644133, 51.527905871276744 ] } },
{ "type": "Feature", "properties": { "FID_LL_PA": 22, "ID": "0", "SOURCE_MAP": "EP2", "SOURCE_ID": "LANDMARK", "NAME": "St Mary Paddington", "DIGI_SCALE": 1000, "NAME_1": "Church Street", "F_AREA": 507.86109289000001, "ORIG_FID": 129, "POINT_X": 527015.31964442413, "POINT_Y": 181745.73766360246 }, "geometry": { "type": "Point", "coordinates": [ -0.170704979565926, 51.520357549248729 ] } },
{ "type": "Feature", "properties": { "FID_LL_PA": 22, "ID": "0", "SOURCE_MAP": "EP2", "SOURCE_ID": "LANDMARK", "NAME": "St Mary Paddington", "DIGI_SCALE": 1000, "NAME_1": "Knightsbridge and Belgravia", "F_AREA": 5474.8744033599996, "ORIG_FID": 130, "POINT_X": 527158.60332500096, "POINT_Y": 180849.38050016016 }, "geometry": { "type": "Point", "coordinates": [ -0.168964019743726, 51.512269920494873 ] } },
{ "type": "Feature", "properties": { "FID_LL_PA": 22, "ID": "0", "SOURCE_MAP": "EP2", "SOURCE_ID": "LANDMARK", "NAME": "St Mary Paddington", "DIGI_SCALE": 1000, "NAME_1": "Little Venice", "F_AREA": 1553.9031472199999, "ORIG_FID": 131, "POINT_X": 527017.6138084447, "POINT_Y": 181719.63172507659 }, "geometry": { "type": "Point", "coordinates": [ -0.17068133270368, 51.520122423826251 ] } },
{ "type": "Feature", "properties": { "FID_LL_PA": 22, "ID": "0", "SOURCE_MAP": "EP2", "SOURCE_ID": "LANDMARK", "NAME": "St Mary Paddington", "DIGI_SCALE": 1000, "NAME_1": "Hyde Park", "F_AREA": 329709.61405199999, "ORIG_FID": 132, "POINT_X": 527187.82493114099, "POINT_Y": 181211.32587759569 }, "geometry": { "type": "Point", "coordinates": [ -0.168412683880888, 51.515516096435022 ] } },
{ "type": "Feature", "properties": { "FID_LL_PA": 22, "ID": "0", "SOURCE_MAP": "EP2", "SOURCE_ID": "LANDMARK", "NAME": "St Mary Paddington", "DIGI_SCALE": 1000, "NAME_1": "Bryanston and Dorset Square", "F_AREA": 1698.8663601000001, "ORIG_FID": 133, "POINT_X": 527342.29145389609, "POINT_Y": 181402.03200038336 }, "geometry": { "type": "Point", "coordinates": [ -0.166118964611087, 51.51719517580932 ] } },
{ "type": "Feature", "properties": { "FID_LL_PA": 23, "ID": "p66", "SOURCE_MAP": "EP2", "SOURCE_ID": "MANNIX_GAZ", "NAME": "St George Hanover Square", "DIGI_SCALE": 1000, "NAME_1": "Hyde Park", "F_AREA": 21910.8597964, "ORIG_FID": 134, "POINT_X": 527409.79430649988, "POINT_Y": 180998.93888613209 }, "geometry": { "type": "Point", "coordinates": [ -0.165292206278536, 51.513557441649027 ] } },
{ "type": "Feature", "properties": { "FID_LL_PA": 24, "ID": "p38", "SOURCE_MAP": "EP2", "SOURCE_ID": "MANNIX_GAZ", "NAME": "St Anne Soho", "DIGI_SCALE": 1000, "NAME_1": "West End", "F_AREA": 143548.164235, "ORIG_FID": 135, "POINT_X": 529700.74567950144, "POINT_Y": 181148.80809207447 }, "geometry": { "type": "Point", "coordinates": [ -0.132240953913424, 51.514383477449883 ] } },
{ "type": "Feature", "properties": { "FID_LL_PA": 24, "ID": "p38", "SOURCE_MAP": "EP2", "SOURCE_ID": "MANNIX_GAZ", "NAME": "St Anne Soho", "DIGI_SCALE": 1000, "NAME_1": "St. James's", "F_AREA": 71851.629929500006, "ORIG_FID": 136, "POINT_X": 529878.77744314261, "POINT_Y": 180858.04906110279 }, "geometry": { "type": "Point", "coordinates": [ -0.129783781128936, 51.511729666613974 ] } },
{ "type": "Feature", "properties": { "FID_LL_PA": 24, "ID": "p38", "SOURCE_MAP": "EP2", "SOURCE_ID": "MANNIX_GAZ", "NAME": "St Anne Soho", "DIGI_SCALE": 1000, "NAME_1": "Bloomsbury", "F_AREA": 2.6204589166900001, "ORIG_FID": 137, "POINT_X": 529827.139236724, "POINT_Y": 181382.13499460183 }, "geometry": { "type": "Point", "coordinates": [ -0.130334646324627, 51.516451300994959 ] } },
{ "type": "Feature", "properties": { "FID_LL_PA": 24, "ID": "p38", "SOURCE_MAP": "EP2", "SOURCE_ID": "MANNIX_GAZ", "NAME": "St Anne Soho", "DIGI_SCALE": 1000, "NAME_1": "Holborn and Covent Garden", "F_AREA": 1198.01056393, "ORIG_FID": 138, "POINT_X": 529834.40646839049, "POINT_Y": 181285.29275481589 }, "geometry": { "type": "Point", "coordinates": [ -0.1302656106418, 51.515579345170408 ] } },
{ "type": "Feature", "properties": { "FID_LL_PA": 25, "ID": "p77", "SOURCE_MAP": "EP2", "SOURCE_ID": "MANNIX_GAZ", "NAME": "St James Westminster", "DIGI_SCALE": 1000, "NAME_1": "West End", "F_AREA": 387423.71503800002, "ORIG_FID": 139, "POINT_X": 529314.26239557751, "POINT_Y": 180903.34961154684 }, "geometry": { "type": "Point", "coordinates": [ -0.137897453445476, 51.512266129546333 ] } },
{ "type": "Feature", "properties": { "FID_LL_PA": 25, "ID": "p77", "SOURCE_MAP": "EP2", "SOURCE_ID": "MANNIX_GAZ", "NAME": "St James Westminster", "DIGI_SCALE": 1000, "NAME_1": "St. James's", "F_AREA": 273323.92443999997, "ORIG_FID": 140, "POINT_X": 529469.41574053839, "POINT_Y": 180384.17970640771 }, "geometry": { "type": "Point", "coordinates": [ -0.135853329731617, 51.507565014588181 ] } },
{ "type": "Feature", "properties": { "FID_LL_PA": 26, "ID": "p80", "SOURCE_MAP": "EP2-EP1", "SOURCE_ID": "MANNIX_GAZ", "NAME": "St John the Evangelist Westminster", "DIGI_SCALE": 1000, "NAME_1": "Vincent Square", "F_AREA": 541933.57401500002, "ORIG_FID": 141, "POINT_X": 529918.81942706462, "POINT_Y": 178694.30055134743 }, "geometry": { "type": "Point", "coordinates": [ -0.130003247526474, 51.492275583499577 ] } },
{ "type": "Feature", "properties": { "FID_LL_PA": 26, "ID": "p80", "SOURCE_MAP": "EP2-EP1", "SOURCE_ID": "MANNIX_GAZ", "NAME": "St John the Evangelist Westminster", "DIGI_SCALE": 1000, "NAME_1": "Tachbrook", "F_AREA": 166380.00660399999, "ORIG_FID": 142, "POINT_X": 529918.98357191589, "POINT_Y": 178155.62538824975 }, "geometry": { "type": "Point", "coordinates": [ -0.130198953091167, 51.487434640468564 ] } },
{ "type": "Feature", "properties": { "FID_LL_PA": 26, "ID": "p80", "SOURCE_MAP": "EP2-EP1", "SOURCE_ID": "MANNIX_GAZ", "NAME": "St John the Evangelist Westminster", "DIGI_SCALE": 1000, "NAME_1": "Prince's", "F_AREA": 30.147556934699999, "ORIG_FID": 143, "POINT_X": 530314.65283905994, "POINT_Y": 178527.18274556473 }, "geometry": { "type": "Point", "coordinates": [ -0.124366469215602, 51.490682745701633 ] } },
{ "type": "Feature", "properties": { "FID_LL_PA": 26, "ID": "p80", "SOURCE_MAP": "EP2-EP1", "SOURCE_ID": "MANNIX_GAZ", "NAME": "St John the Evangelist Westminster", "DIGI_SCALE": 1000, "NAME_1": "St. James's", "F_AREA": 324290.91875900002, "ORIG_FID": 144, "POINT_X": 529970.97161063086, "POINT_Y": 179163.30303541757 }, "geometry": { "type": "Point", "coordinates": [ -0.129079898528289, 51.496478382090572 ] } },
{ "type": "Feature", "properties": { "FID_LL_PA": 26, "ID": "p80", "SOURCE_MAP": "EP2-EP1", "SOURCE_ID": "MANNIX_GAZ", "NAME": "St John the Evangelist Westminster", "DIGI_SCALE": 1000, "NAME_1": "Queenstown", "F_AREA": 11.5402279, "ORIG_FID": 145, "POINT_X": 529965.00274800416, "POINT_Y": 177983.54423330724 }, "geometry": { "type": "Point", "coordinates": [ -0.129599813662935, 51.485877636063378 ] } },
{ "type": "Feature", "properties": { "FID_LL_PA": 26, "ID": "p80", "SOURCE_MAP": "EP2-EP1", "SOURCE_ID": "MANNIX_GAZ", "NAME": "St John the Evangelist Westminster", "DIGI_SCALE": 1000, "NAME_1": "Oval", "F_AREA": 229.878226187, "ORIG_FID": 146, "POINT_X": 529984.92611548677, "POINT_Y": 177999.55778643675 }, "geometry": { "type": "Point", "coordinates": [ -0.129307146533392, 51.486016970186029 ] } },
{ "type": "Feature", "properties": { "FID_LL_PA": 26, "ID": "p80", "SOURCE_MAP": "EP2-EP1", "SOURCE_ID": "MANNIX_GAZ", "NAME": "St John the Evangelist Westminster", "DIGI_SCALE": 1000, "NAME_1": "Warwick", "F_AREA": 166.76194393099999, "ORIG_FID": 147, "POINT_X": 529323.44043364283, "POINT_Y": 178724.04361242056 }, "geometry": { "type": "Point", "coordinates": [ -0.138563494663686, 51.492679241287988 ] } },
{ "type": "Feature", "properties": { "FID_LL_PA": 27, "ID": "0", "SOURCE_MAP": "EP2-EP1", "SOURCE_ID": "LANDMARK", "NAME": "Westminster Abbey", "DIGI_SCALE": 1000, "NAME_1": "St. James's", "F_AREA": 38909.866105900001, "ORIG_FID": 148, "POINT_X": 530048.04922258761, "POINT_Y": 179415.46483311057 }, "geometry": { "type": "Point", "coordinates": [ -0.127877332502976, 51.498726766207255 ] } },
{ "type": "Feature", "properties": { "FID_LL_PA": 28, "ID": "p66", "SOURCE_MAP": "EP2", "SOURCE_ID": "MANNIX_GAZ", "NAME": "St George Hanover Square", "DIGI_SCALE": 1000, "NAME_1": "Brompton", "F_AREA": 5525.7324604200003, "ORIG_FID": 149, "POINT_X": 528043.66210062616, "POINT_Y": 179281.63923094608 }, "geometry": { "type": "Point", "coordinates": [ -0.156785515428055, 51.497981252730824 ] } },
{ "type": "Feature", "properties": { "FID_LL_PA": 28, "ID": "p66", "SOURCE_MAP": "EP2", "SOURCE_ID": "MANNIX_GAZ", "NAME": "St George Hanover Square", "DIGI_SCALE": 1000, "NAME_1": "Vincent Square", "F_AREA": 10213.7982631, "ORIG_FID": 150, "POINT_X": 529129.50272485521, "POINT_Y": 178961.70015818067 }, "geometry": { "type": "Point", "coordinates": [ -0.141268598206807, 51.4948592830915 ] } },
{ "type": "Feature", "properties": { "FID_LL_PA": 28, "ID": "p66", "SOURCE_MAP": "EP2", "SOURCE_ID": "MANNIX_GAZ", "NAME": "St George Hanover Square", "DIGI_SCALE": 1000, "NAME_1": "West End", "F_AREA": 1019065.55318, "ORIG_FID": 151, "POINT_X": 528580.47411588021, "POINT_Y": 180626.43512058817 }, "geometry": { "type": "Point", "coordinates": [ -0.148566716932692, 51.509944879915565 ] } },
{ "type": "Feature", "properties": { "FID_LL_PA": 28, "ID": "p66", "SOURCE_MAP": "EP2", "SOURCE_ID": "MANNIX_GAZ", "NAME": "St George Hanover Square", "DIGI_SCALE": 1000, "NAME_1": "Tachbrook", "F_AREA": 275252.34055899997, "ORIG_FID": 152, "POINT_X": 529561.79699169472, "POINT_Y": 178107.74281506054 }, "geometry": { "type": "Point", "coordinates": [ -0.135358049650677, 51.487086203938816 ] } },
{ "type": "Feature", "properties": { "FID_LL_PA": 28, "ID": "p66", "SOURCE_MAP": "EP2", "SOURCE_ID": "MANNIX_GAZ", "NAME": "St George Hanover Square", "DIGI_SCALE": 1000, "NAME_1": "St. James's", "F_AREA": 233006.83953699999, "ORIG_FID": 153, "POINT_X": 528866.7764740577, "POINT_Y": 179460.3373146262 }, "geometry": { "type": "Point", "coordinates": [ -0.144869123410899, 51.499400302302092 ] } },
{ "type": "Feature", "properties": { "FID_LL_PA": 28, "ID": "p66", "SOURCE_MAP": "EP2", "SOURCE_ID": "MANNIX_GAZ", "NAME": "St George Hanover Square", "DIGI_SCALE": 1000, "NAME_1": "Knightsbridge and Belgravia", "F_AREA": 1746778.61626, "ORIG_FID": 154, "POINT_X": 527444.30044274684, "POINT_Y": 180482.85744675063 }, "geometry": { "type": "Point", "coordinates": [ -0.164981587149668, 51.508911729673855 ] } },
{ "type": "Feature", "properties": { "FID_LL_PA": 28, "ID": "p66", "SOURCE_MAP": "EP2", "SOURCE_ID": "MANNIX_GAZ", "NAME": "St George Hanover Square", "DIGI_SCALE": 1000, "NAME_1": "Royal Hospital", "F_AREA": 78718.745599300004, "ORIG_FID": 155, "POINT_X": 528425.89510864392, "POINT_Y": 177921.44840814359 }, "geometry": { "type": "Point", "coordinates": [ -0.151776556274854, 51.485670871625189 ] } },
{ "type": "Feature", "properties": { "FID_LL_PA": 28, "ID": "p66", "SOURCE_MAP": "EP2", "SOURCE_ID": "MANNIX_GAZ", "NAME": "St George Hanover Square", "DIGI_SCALE": 1000, "NAME_1": "Hyde Park", "F_AREA": 2028.4020285199999, "ORIG_FID": 156, "POINT_X": 527696.06018439401, "POINT_Y": 180963.59199513309 }, "geometry": { "type": "Point", "coordinates": [ -0.161181907635182, 51.513175217958633 ] } },
{ "type": "Feature", "properties": { "FID_LL_PA": 28, "ID": "p66", "SOURCE_MAP": "EP2", "SOURCE_ID": "MANNIX_GAZ", "NAME": "St George Hanover Square", "DIGI_SCALE": 1000, "NAME_1": "Churchill", "F_AREA": 564050.10561299999, "ORIG_FID": 157, "POINT_X": 529105.35315606557, "POINT_Y": 177966.44376224279 }, "geometry": { "type": "Point", "coordinates": [ -0.141979948268272, 51.485920676321257 ] } },
{ "type": "Feature", "properties": { "FID_LL_PA": 28, "ID": "p66", "SOURCE_MAP": "EP2", "SOURCE_ID": "MANNIX_GAZ", "NAME": "St George Hanover Square", "DIGI_SCALE": 1000, "NAME_1": "Queenstown", "F_AREA": 5650.540913, "ORIG_FID": 158, "POINT_X": 529015.98368592653, "POINT_Y": 177783.48552784696 }, "geometry": { "type": "Point", "coordinates": [ -0.143333132495172, 51.484296850103419 ] } },
{ "type": "Feature", "properties": { "FID_LL_PA": 28, "ID": "p66", "SOURCE_MAP": "EP2", "SOURCE_ID": "MANNIX_GAZ", "NAME": "St George Hanover Square", "DIGI_SCALE": 1000, "NAME_1": "Hans Town", "F_AREA": 20882.907389600001, "ORIG_FID": 159, "POINT_X": 528144.96767971944, "POINT_Y": 178824.30105704255 }, "geometry": { "type": "Point", "coordinates": [ -0.155492834339384, 51.493848308746237 ] } },
{ "type": "Feature", "properties": { "FID_LL_PA": 28, "ID": "p66", "SOURCE_MAP": "EP2", "SOURCE_ID": "MANNIX_GAZ", "NAME": "St George Hanover Square", "DIGI_SCALE": 1000, "NAME_1": "Marylebone High Street", "F_AREA": 68.133194469100005, "ORIG_FID": 160, "POINT_X": 528085.26327665616, "POINT_Y": 181037.59431801923 }, "geometry": { "type": "Point", "coordinates": [ -0.155549412709661, 51.513752243772615 ] } },
{ "type": "Feature", "properties": { "FID_LL_PA": 28, "ID": "p66", "SOURCE_MAP": "EP2", "SOURCE_ID": "MANNIX_GAZ", "NAME": "St George Hanover Square", "DIGI_SCALE": 1000, "NAME_1": "Bryanston and Dorset Square", "F_AREA": 939.87408574799997, "ORIG_FID": 161, "POINT_X": 527979.67505320907, "POINT_Y": 181017.7711959444 }, "geometry": { "type": "Point", "coordinates": [ -0.157077392854262, 51.513598003075458 ] } },
{ "type": "Feature", "properties": { "FID_LL_PA": 28, "ID": "p66", "SOURCE_MAP": "EP2", "SOURCE_ID": "MANNIX_GAZ", "NAME": "St George Hanover Square", "DIGI_SCALE": 1000, "NAME_1": "Warwick", "F_AREA": 568853.20605399995, "ORIG_FID": 162, "POINT_X": 528953.23336122371, "POINT_Y": 178647.70147752203 }, "geometry": { "type": "Point", "coordinates": [ -0.143920963513665, 51.492077650269493 ] } },
{ "type": "Feature", "properties": { "FID_LL_PA": 29, "ID": "p94", "SOURCE_MAP": "EP2", "SOURCE_ID": "MANNIX_GAZ", "NAME": "St Margaret Westminster", "DIGI_SCALE": 1000, "NAME_1": "Brompton", "F_AREA": 7491.6326047599996, "ORIG_FID": 163, "POINT_X": 527808.09436333366, "POINT_Y": 179695.18226938136 }, "geometry": { "type": "Point", "coordinates": [ -0.160027566133067, 51.501750950294081 ] } },
{ "type": "Feature", "properties": { "FID_LL_PA": 29, "ID": "p94", "SOURCE_MAP": "EP2", "SOURCE_ID": "MANNIX_GAZ", "NAME": "St Margaret Westminster", "DIGI_SCALE": 1000, "NAME_1": "Knightsbridge and Belgravia", "F_AREA": 499283.00035699998, "ORIG_FID": 164, "POINT_X": 527367.31367531419, "POINT_Y": 179753.91821943782 }, "geometry": { "type": "Point", "coordinates": [ -0.16635331796715, 51.502378206409048 ] } },
{ "type": "Feature", "properties": { "FID_LL_PA": 30, "ID": "0", "SOURCE_MAP": "EP2", "SOURCE_ID": "LANDMARK", "NAME": "Brompton", "DIGI_SCALE": 1000, "NAME_1": "Brompton", "F_AREA": 313214.25528600003, "ORIG_FID": 165, "POINT_X": 527271.7799528623, "POINT_Y": 179119.25143911503 }, "geometry": { "type": "Point", "coordinates": [ -0.167957692814525, 51.496696041955147 ] } },
{ "type": "Feature", "properties": { "FID_LL_PA": 30, "ID": "0", "SOURCE_MAP": "EP2", "SOURCE_ID": "LANDMARK", "NAME": "Brompton", "DIGI_SCALE": 1000, "NAME_1": "Stanley", "F_AREA": 126.490766642, "ORIG_FID": 166, "POINT_X": 527015.70162616484, "POINT_Y": 178568.75650025904 }, "geometry": { "type": "Point", "coordinates": [ -0.171842588228174, 51.491806342673954 ] } },
{ "type": "Feature", "properties": { "FID_LL_PA": 30, "ID": "0", "SOURCE_MAP": "EP2", "SOURCE_ID": "LANDMARK", "NAME": "Brompton", "DIGI_SCALE": 1000, "NAME_1": "Knightsbridge and Belgravia", "F_AREA": 22410.527406900001, "ORIG_FID": 167, "POINT_X": 527473.17364105023, "POINT_Y": 179415.26824661531 }, "geometry": { "type": "Point", "coordinates": [ -0.164951238082722, 51.499310968036298 ] } },
{ "type": "Feature", "properties": { "FID_LL_PA": 30, "ID": "0", "SOURCE_MAP": "EP2", "SOURCE_ID": "LANDMARK", "NAME": "Brompton", "DIGI_SCALE": 1000, "NAME_1": "Hans Town", "F_AREA": 228.543985327, "ORIG_FID": 168, "POINT_X": 527214.78955448233, "POINT_Y": 178779.54590284824 }, "geometry": { "type": "Point", "coordinates": [ -0.168900570715778, 51.493655965954531 ] } },
{ "type": "Feature", "properties": { "FID_LL_PA": 31, "ID": "p87", "SOURCE_MAP": "EP2-EP1", "SOURCE_ID": "MANNIX_GAZ", "NAME": "St Luke Chelsea", "DIGI_SCALE": 1000, "NAME_1": "Brompton", "F_AREA": 206562.09917900001, "ORIG_FID": 169, "POINT_X": 527840.14369815681, "POINT_Y": 179433.5016120933 }, "geometry": { "type": "Point", "coordinates": [ -0.159660815901589, 51.499392031808384 ] } },
{ "type": "Feature", "properties": { "FID_LL_PA": 31, "ID": "p87", "SOURCE_MAP": "EP2-EP1", "SOURCE_ID": "MANNIX_GAZ", "NAME": "St Luke Chelsea", "DIGI_SCALE": 1000, "NAME_1": "Cremorne", "F_AREA": 160128.69751100001, "ORIG_FID": 170, "POINT_X": 527151.59737211559, "POINT_Y": 177694.96849735454 }, "geometry": { "type": "Point", "coordinates": [ -0.170200606866274, 51.483923188177869 ] } },
{ "type": "Feature", "properties": { "FID_LL_PA": 31, "ID": "p87", "SOURCE_MAP": "EP2-EP1", "SOURCE_ID": "MANNIX_GAZ", "NAME": "St Luke Chelsea", "DIGI_SCALE": 1000, "NAME_1": "Stanley", "F_AREA": 168304.311801, "ORIG_FID": 171, "POINT_X": 527124.12411069497, "POINT_Y": 178220.51360164396 }, "geometry": { "type": "Point", "coordinates": [ -0.170407007622998, 51.488652378437109 ] } },
{ "type": "Feature", "properties": { "FID_LL_PA": 31, "ID": "p87", "SOURCE_MAP": "EP2-EP1", "SOURCE_ID": "MANNIX_GAZ", "NAME": "St Luke Chelsea", "DIGI_SCALE": 1000, "NAME_1": "Knightsbridge and Belgravia", "F_AREA": 13926.839756900001, "ORIG_FID": 172, "POINT_X": 527955.98461393826, "POINT_Y": 179575.30546334758 }, "geometry": { "type": "Point", "coordinates": [ -0.157941496290732, 51.500640210870188 ] } },
{ "type": "Feature", "properties": { "FID_LL_PA": 31, "ID": "p87", "SOURCE_MAP": "EP2-EP1", "SOURCE_ID": "MANNIX_GAZ", "NAME": "St Luke Chelsea", "DIGI_SCALE": 1000, "NAME_1": "Royal Hospital", "F_AREA": 742802.98771799996, "ORIG_FID": 173, "POINT_X": 527775.60160899255, "POINT_Y": 178069.05533151887 }, "geometry": { "type": "Point", "coordinates": [ -0.161083643790334, 51.487144552869722 ] } },
{ "type": "Feature", "properties": { "FID_LL_PA": 31, "ID": "p87", "SOURCE_MAP": "EP2-EP1", "SOURCE_ID": "MANNIX_GAZ", "NAME": "St Luke Chelsea", "DIGI_SCALE": 1000, "NAME_1": "Churchill", "F_AREA": 43499.632651899999, "ORIG_FID": 174, "POINT_X": 528317.95084349159, "POINT_Y": 178283.34581263922 }, "geometry": { "type": "Point", "coordinates": [ -0.153198914020322, 51.488947653910145 ] } },
{ "type": "Feature", "properties": { "FID_LL_PA": 31, "ID": "p87", "SOURCE_MAP": "EP2-EP1", "SOURCE_ID": "MANNIX_GAZ", "NAME": "St Luke Chelsea", "DIGI_SCALE": 1000, "NAME_1": "Queenstown", "F_AREA": 989.747844816, "ORIG_FID": 175, "POINT_X": 527633.44617423136, "POINT_Y": 177586.83849312179 }, "geometry": { "type": "Point", "coordinates": [ -0.163304067042191, 51.482843007543124 ] } },
{ "type": "Feature", "properties": { "FID_LL_PA": 31, "ID": "p87", "SOURCE_MAP": "EP2-EP1", "SOURCE_ID": "MANNIX_GAZ", "NAME": "St Luke Chelsea", "DIGI_SCALE": 1000, "NAME_1": "St. Mary's Park", "F_AREA": 1065.80062223, "ORIG_FID": 176, "POINT_X": 527110.28277305514, "POINT_Y": 177440.50350033119 }, "geometry": { "type": "Point", "coordinates": [ -0.170886783045717, 51.481645613326691 ] } },
{ "type": "Feature", "properties": { "FID_LL_PA": 31, "ID": "p87", "SOURCE_MAP": "EP2-EP1", "SOURCE_ID": "MANNIX_GAZ", "NAME": "St Luke Chelsea", "DIGI_SCALE": 1000, "NAME_1": "Hans Town", "F_AREA": 531231.73765499995, "ORIG_FID": 177, "POINT_X": 527655.20380242541, "POINT_Y": 178777.81246849522 }, "geometry": { "type": "Point", "coordinates": [ -0.162560662371106, 51.493541213800199 ] } },
{ "type": "Feature", "properties": { "FID_LL_PA": 32, "ID": "p139", "SOURCE_MAP": "EP2", "SOURCE_ID": "MANNIX_GAZ", "NAME": "St Paul Covent Garden", "DIGI_SCALE": 1000, "NAME_1": "St. James's", "F_AREA": 106396.537677, "ORIG_FID": 178, "POINT_X": 530356.6468449682, "POINT_Y": 180881.22208852693 }, "geometry": { "type": "Point", "coordinates": [ -0.122892885643523, 51.511827967711724 ] } },
{ "type": "Feature", "properties": { "FID_LL_PA": 33, "ID": "p56", "SOURCE_MAP": "EP2", "SOURCE_ID": "MANNIX_GAZ", "NAME": "St Clement Danes", "DIGI_SCALE": 1000, "NAME_1": "St. James's", "F_AREA": 4639.9142495200003, "ORIG_FID": 179, "POINT_X": 530564.12404712383, "POINT_Y": 180836.83329198323 }, "geometry": { "type": "Point", "coordinates": [ -0.119921196135692, 51.511381201969925 ] } },
{ "type": "Feature", "properties": { "FID_LL_PA": 34, "ID": "p17", "SOURCE_MAP": "EP2", "SOURCE_ID": "MANNIX_GAZ", "NAME": "Liberty of the Savoy", "DIGI_SCALE": 1000, "NAME_1": "St. James's", "F_AREA": 38298.573693500002, "ORIG_FID": 180, "POINT_X": 530657.3745, "POINT_Y": 180689.03834908456 }, "geometry": { "type": "Point", "coordinates": [ -0.118632923986297, 51.510031492682174 ] } },
{ "type": "Feature", "properties": { "FID_LL_PA": 35, "ID": "p99", "SOURCE_MAP": "EP2", "SOURCE_ID": "MANNIX_GAZ", "NAME": "St Martin in the Fields", "DIGI_SCALE": 1000, "NAME_1": "West End", "F_AREA": 8015.5917589299997, "ORIG_FID": 181, "POINT_X": 528489.99749602564, "POINT_Y": 179831.30751059204 }, "geometry": { "type": "Point", "coordinates": [ -0.150159163691569, 51.502819817804266 ] } },
{ "type": "Feature", "properties": { "FID_LL_PA": 35, "ID": "p99", "SOURCE_MAP": "EP2", "SOURCE_ID": "MANNIX_GAZ", "NAME": "St Martin in the Fields", "DIGI_SCALE": 1000, "NAME_1": "St. James's", "F_AREA": 1179032.5559100001, "ORIG_FID": 182, "POINT_X": 529539.24632367026, "POINT_Y": 179994.16153120436 }, "geometry": { "type": "Point", "coordinates": [ -0.134990826598369, 51.504044054774567 ] } },
{ "type": "Feature", "properties": { "FID_LL_PA": 35, "ID": "p99", "SOURCE_MAP": "EP2", "SOURCE_ID": "MANNIX_GAZ", "NAME": "St Martin in the Fields", "DIGI_SCALE": 1000, "NAME_1": "Bishop's", "F_AREA": 510.22960155800001, "ORIG_FID": 183, "POINT_X": 530529.65928757656, "POINT_Y": 180215.38939514384 }, "geometry": { "type": "Point", "coordinates": [ -0.120647382340394, 51.505804483778775 ] } },
{ "type": "Feature", "properties": { "FID_LL_PA": 35, "ID": "p99", "SOURCE_MAP": "EP2", "SOURCE_ID": "MANNIX_GAZ", "NAME": "St Martin in the Fields", "DIGI_SCALE": 1000, "NAME_1": "Holborn and Covent Garden", "F_AREA": 2385.7969286799998, "ORIG_FID": 184, "POINT_X": 530320.1938421689, "POINT_Y": 181223.27041638456 }, "geometry": { "type": "Point", "coordinates": [ -0.123291557654738, 51.51491022616392 ] } },
{ "type": "Feature", "properties": { "FID_LL_PA": 36, "ID": "p117", "SOURCE_MAP": "EP2", "SOURCE_ID": "MANNIX_GAZ", "NAME": "St Mary le Strand", "DIGI_SCALE": 1000, "NAME_1": "St. James's", "F_AREA": 84041.341849599994, "ORIG_FID": 185, "POINT_X": 530772.31664654985, "POINT_Y": 180786.93425906263 }, "geometry": { "type": "Point", "coordinates": [ -0.116941305459477, 51.510884677700233 ] } },
{ "type": "Feature", "properties": { "FID_LL_PA": 36, "ID": "p117", "SOURCE_MAP": "EP2", "SOURCE_ID": "MANNIX_GAZ", "NAME": "St Mary le Strand", "DIGI_SCALE": 1000, "NAME_1": "Bishop's", "F_AREA": 62.699929600399997, "ORIG_FID": 186, "POINT_X": 530871.22969132569, "POINT_Y": 180594.02607842907 }, "geometry": { "type": "Point", "coordinates": [ -0.115588315296918, 51.509128212521318 ] } },
{ "type": "Feature", "properties": { "FID_LL_PA": 37, "ID": "p16", "SOURCE_MAP": "EP2", "SOURCE_ID": "MANNIX_GAZ", "NAME": "Liberty of the Rolls", "DIGI_SCALE": 1000, "NAME_1": "St. James's", "F_AREA": 8729.3352898199992, "ORIG_FID": 187, "POINT_X": 531090.79172595125, "POINT_Y": 181206.8332435526 }, "geometry": { "type": "Point", "coordinates": [ -0.11219870718196, 51.514584395859856 ] } },
{ "type": "Feature", "properties": { "FID_LL_PA": 37, "ID": "p16", "SOURCE_MAP": "EP2", "SOURCE_ID": "MANNIX_GAZ", "NAME": "Liberty of the Rolls", "DIGI_SCALE": 1000, "NAME_1": "Farringdon Without", "F_AREA": 22340.7581737, "ORIG_FID": 188, "POINT_X": 531176.47806204483, "POINT_Y": 181308.02405318245 }, "geometry": { "type": "Point", "coordinates": [ -0.110926951456349, 51.515473881561775 ] } },
{ "type": "Feature", "properties": { "FID_LL_PA": 37, "ID": "p16", "SOURCE_MAP": "EP2", "SOURCE_ID": "MANNIX_GAZ", "NAME": "Liberty of the Rolls", "DIGI_SCALE": 1000, "NAME_1": "Holborn and Covent Garden", "F_AREA": 11762.702913700001, "ORIG_FID": 189, "POINT_X": 531064.35693398118, "POINT_Y": 181315.3594745528 }, "geometry": { "type": "Point", "coordinates": [ -0.112539130263031, 51.515565800538752 ] } },
{ "type": "Feature", "properties": { "FID_LL_PA": 38, "ID": "0", "SOURCE_MAP": "EP2", "SOURCE_ID": "LANDMARK", "NAME": "Staple Inn", "DIGI_SCALE": 1000, "NAME_1": "Farringdon Without", "F_AREA": 4068.3832347699999, "ORIG_FID": 190, "POINT_X": 531144.67985582259, "POINT_Y": 181548.83441329561 }, "geometry": { "type": "Point", "coordinates": [ -0.111295428767335, 51.517645311483648 ] } },
{ "type": "Feature", "properties": { "FID_LL_PA": 39, "ID": "p31", "SOURCE_MAP": "EP2-EP1", "SOURCE_ID": "MANNIX_GAZ", "NAME": "St Andrew Holborn", "DIGI_SCALE": 1000, "NAME_1": "Farringdon Without", "F_AREA": 25602.741779299999, "ORIG_FID": 191, "POINT_X": 531069.91559174471, "POINT_Y": 181516.7038089186 }, "geometry": { "type": "Point", "coordinates": [ -0.112384263251442, 51.517373904236592 ] } },
{ "type": "Feature", "properties": { "FID_LL_PA": 39, "ID": "p31", "SOURCE_MAP": "EP2-EP1", "SOURCE_ID": "MANNIX_GAZ", "NAME": "St Andrew Holborn", "DIGI_SCALE": 1000, "NAME_1": "Holborn and Covent Garden", "F_AREA": 274777.93748600001, "ORIG_FID": 192, "POINT_X": 531111.31092500035, "POINT_Y": 181871.7927109655 }, "geometry": { "type": "Point", "coordinates": [ -0.111656027787831, 51.520555330440402 ] } },
{ "type": "Feature", "properties": { "FID_LL_PA": 40, "ID": "0", "SOURCE_MAP": "EP2", "SOURCE_ID": "LANDMARK", "NAME": "Gray's Inn", "DIGI_SCALE": 1000, "NAME_1": "Holborn and Covent Garden", "F_AREA": 47143.064832199998, "ORIG_FID": 193, "POINT_X": 530966.02370000165, "POINT_Y": 181826.81370173395 }, "geometry": { "type": "Point", "coordinates": [ -0.113765565387439, 51.520184798340779 ] } },
{ "type": "Feature", "properties": { "FID_LL_PA": 41, "ID": "p73", "SOURCE_MAP": "EP2", "SOURCE_ID": "MANNIX_GAZ", "NAME": "St James Clerkenwell", "DIGI_SCALE": 1000, "NAME_1": "Clerkenwell", "F_AREA": 702125.95496600005, "ORIG_FID": 194, "POINT_X": 531303.10969392024, "POINT_Y": 182609.37587669864 }, "geometry": { "type": "Point", "coordinates": [ -0.10861857252894, 51.527139128302224 ] } },
{ "type": "Feature", "properties": { "FID_LL_PA": 41, "ID": "p73", "SOURCE_MAP": "EP2", "SOURCE_ID": "MANNIX_GAZ", "NAME": "St James Clerkenwell", "DIGI_SCALE": 1000, "NAME_1": "Bunhill", "F_AREA": 112876.52222300001, "ORIG_FID": 195, "POINT_X": 531802.47944779042, "POINT_Y": 182365.70767583512 }, "geometry": { "type": "Point", "coordinates": [ -0.101515332411509, 51.524833183502778 ] } },
{ "type": "Feature", "properties": { "FID_LL_PA": 41, "ID": "p73", "SOURCE_MAP": "EP2", "SOURCE_ID": "MANNIX_GAZ", "NAME": "St James Clerkenwell", "DIGI_SCALE": 1000, "NAME_1": "King's Cross", "F_AREA": 3956.6878802199999, "ORIG_FID": 196, "POINT_X": 530948.34847612586, "POINT_Y": 182467.13808472641 }, "geometry": { "type": "Point", "coordinates": [ -0.113782405736856, 51.525943201500922 ] } },
{ "type": "Feature", "properties": { "FID_LL_PA": 41, "ID": "p73", "SOURCE_MAP": "EP2", "SOURCE_ID": "MANNIX_GAZ", "NAME": "St James Clerkenwell", "DIGI_SCALE": 1000, "NAME_1": "Holborn and Covent Garden", "F_AREA": 14067.329999699999, "ORIG_FID": 197, "POINT_X": 531116.78874222375, "POINT_Y": 182163.6412598975 }, "geometry": { "type": "Point", "coordinates": [ -0.111468619375955, 51.52317676943494 ] } },
{ "type": "Feature", "properties": { "FID_LL_PA": 42, "ID": "0", "SOURCE_MAP": "EP2", "SOURCE_ID": "LANDMARK", "NAME": "Liberty of Saffron Hill", "DIGI_SCALE": 1000, "NAME_1": "Clerkenwell", "F_AREA": 11789.897769, "ORIG_FID": 198, "POINT_X": 531359.7935815556, "POINT_Y": 182086.00674539804 }, "geometry": { "type": "Point", "coordinates": [ -0.107996904524043, 51.522422690934036 ] } },
{ "type": "Feature", "properties": { "FID_LL_PA": 42, "ID": "0", "SOURCE_MAP": "EP2", "SOURCE_ID": "LANDMARK", "NAME": "Liberty of Saffron Hill", "DIGI_SCALE": 1000, "NAME_1": "Farringdon Without", "F_AREA": 1680.78746596, "ORIG_FID": 199, "POINT_X": 531448.85689442605, "POINT_Y": 181586.29095289856 }, "geometry": { "type": "Point", "coordinates": [ -0.106900149432477, 51.517911282659043 ] } },
{ "type": "Feature", "properties": { "FID_LL_PA": 42, "ID": "0", "SOURCE_MAP": "EP2", "SOURCE_ID": "LANDMARK", "NAME": "Liberty of Saffron Hill", "DIGI_SCALE": 1000, "NAME_1": "Holborn and Covent Garden", "F_AREA": 114034.33008, "ORIG_FID": 200, "POINT_X": 531376.69669263996, "POINT_Y": 181814.96060237102 }, "geometry": { "type": "Point", "coordinates": [ -0.107854372879956, 51.519983000354841 ] } },
{ "type": "Feature", "properties": { "FID_LL_PA": 43, "ID": "p9", "SOURCE_MAP": "EP2", "SOURCE_ID": "MANNIX_GAZ", "NAME": "Charter House", "DIGI_SCALE": 1000, "NAME_1": "Bunhill", "F_AREA": 40775.128325199999, "ORIG_FID": 201, "POINT_X": 531937.45735000074, "POINT_Y": 182065.56331661902 }, "geometry": { "type": "Point", "coordinates": [ -0.099683127831668, 51.52210445451783 ] } },
{ "type": "Feature", "properties": { "FID_LL_PA": 44, "ID": "0", "SOURCE_MAP": "EP2", "SOURCE_ID": "LANDMARK", "NAME": "Islington", "DIGI_SCALE": 1000, "NAME_1": "Bunhill", "F_AREA": 7223.8891792100003, "ORIG_FID": 202, "POINT_X": 531752.4141750019, "POINT_Y": 182962.69659204781 }, "geometry": { "type": "Point", "coordinates": [ -0.102013482362963, 51.53020968666533 ] } },
{ "type": "Feature", "properties": { "FID_LL_PA": 45, "ID": "0", "SOURCE_MAP": "EP2", "SOURCE_ID": "LANDMARK", "NAME": "Liberty of Glasshouse Yard", "DIGI_SCALE": 1000, "NAME_1": "Bunhill", "F_AREA": 16945.514036199998, "ORIG_FID": 203, "POINT_X": 531993.84504859429, "POINT_Y": 181950.20918417722 }, "geometry": { "type": "Point", "coordinates": [ -0.098914024420083, 51.521054664626718 ] } },
{ "type": "Feature", "properties": { "FID_LL_PA": 45, "ID": "0", "SOURCE_MAP": "EP2", "SOURCE_ID": "LANDMARK", "NAME": "Liberty of Glasshouse Yard", "DIGI_SCALE": 1000, "NAME_1": "Cripplegate", "F_AREA": 4956.5507729600004, "ORIG_FID": 204, "POINT_X": 532121.30237506144, "POINT_Y": 182044.42668040283 }, "geometry": { "type": "Point", "coordinates": [ -0.097042726178188, 51.521871574805118 ] } },
{ "type": "Feature", "properties": { "FID_LL_PA": 45, "ID": "0", "SOURCE_MAP": "EP2", "SOURCE_ID": "LANDMARK", "NAME": "Liberty of Glasshouse Yard", "DIGI_SCALE": 1000, "NAME_1": "Aldersgate", "F_AREA": 101.79298521600001, "ORIG_FID": 205, "POINT_X": 532031.31414501276, "POINT_Y": 181874.77686509117 }, "geometry": { "type": "Point", "coordinates": [ -0.098402525065467, 51.520368044555653 ] } },
{ "type": "Feature", "properties": { "FID_LL_PA": 45, "ID": "0", "SOURCE_MAP": "EP2", "SOURCE_ID": "LANDMARK", "NAME": "Liberty of Glasshouse Yard", "DIGI_SCALE": 1000, "NAME_1": "Farringdon Without", "F_AREA": 938.23733178099997, "ORIG_FID": 206, "POINT_X": 532018.77332347259, "POINT_Y": 181870.32144510187 }, "geometry": { "type": "Point", "coordinates": [ -0.098584838735405, 51.520330934494268 ] } },
{ "type": "Feature", "properties": { "FID_LL_PA": 46, "ID": "p152", "SOURCE_MAP": "EP2", "SOURCE_ID": "MANNIX_GAZ", "NAME": "The Temple", "DIGI_SCALE": 1000, "NAME_1": "St. James's", "F_AREA": 1269.3711694199999, "ORIG_FID": 207, "POINT_X": 531148.01602015458, "POINT_Y": 180733.91401318088 }, "geometry": { "type": "Point", "coordinates": [ -0.111550275410991, 51.510321211593691 ] } },
{ "type": "Feature", "properties": { "FID_LL_PA": 46, "ID": "p152", "SOURCE_MAP": "EP2", "SOURCE_ID": "MANNIX_GAZ", "NAME": "The Temple", "DIGI_SCALE": 1000, "NAME_1": "Farringdon Without", "F_AREA": 93610.082260399999, "ORIG_FID": 208, "POINT_X": 531241.8072898658, "POINT_Y": 180893.03229563311 }, "geometry": { "type": "Point", "coordinates": [ -0.110140358679928, 51.511729379650205 ] } },
{ "type": "Feature", "properties": { "FID_LL_PA": 47, "ID": "p60", "SOURCE_MAP": "EP2", "SOURCE_ID": "MANNIX_GAZ", "NAME": "St Dunstan in the West", "DIGI_SCALE": 1000, "NAME_1": "St. James's", "F_AREA": 5357.9090018099996, "ORIG_FID": 209, "POINT_X": 531136.52412316296, "POINT_Y": 181175.1538345702 }, "geometry": { "type": "Point", "coordinates": [ -0.111551801150199, 51.514289103390183 ] } },
{ "type": "Feature", "properties": { "FID_LL_PA": 47, "ID": "p60", "SOURCE_MAP": "EP2", "SOURCE_ID": "MANNIX_GAZ", "NAME": "St Dunstan in the West", "DIGI_SCALE": 1000, "NAME_1": "Farringdon Without", "F_AREA": 49224.009390699997, "ORIG_FID": 210, "POINT_X": 531282.70877854805, "POINT_Y": 181212.32596264966 }, "geometry": { "type": "Point", "coordinates": [ -0.109432499564718, 51.514589233323932 ] } },
{ "type": "Feature", "properties": { "FID_LL_PA": 48, "ID": "p26", "SOURCE_MAP": "EP2", "SOURCE_ID": "MANNIX_GAZ", "NAME": "Sarjeant's Inn", "DIGI_SCALE": 1000, "NAME_1": "Farringdon Without", "F_AREA": 2328.3211814400001, "ORIG_FID": 211, "POINT_X": 531325.04982627835, "POINT_Y": 181117.75616890565 }, "geometry": { "type": "Point", "coordinates": [ -0.108857864455786, 51.513729546568356 ] } },
{ "type": "Feature", "properties": { "FID_LL_PA": 49, "ID": "p24", "SOURCE_MAP": "EP2", "SOURCE_ID": "MANNIX_GAZ", "NAME": "Precinct of Whitefriars", "DIGI_SCALE": 1000, "NAME_1": "Farringdon Without", "F_AREA": 47241.294275200002, "ORIG_FID": 212, "POINT_X": 531402.73820000049, "POINT_Y": 180898.42915428244 }, "geometry": { "type": "Point", "coordinates": [ -0.10782062303042, 51.511740509362426 ] } },
{ "type": "Feature", "properties": { "FID_LL_PA": 50, "ID": "p54", "SOURCE_MAP": "EP2", "SOURCE_ID": "MANNIX_GAZ", "NAME": "St Bride", "DIGI_SCALE": 1000, "NAME_1": "Farringdon Within", "F_AREA": 12.262002391799999, "ORIG_FID": 213, "POINT_X": 531642.29557424784, "POINT_Y": 181102.02956854738 }, "geometry": { "type": "Point", "coordinates": [ -0.104294568707701, 51.513514456863049 ] } },
{ "type": "Feature", "properties": { "FID_LL_PA": 50, "ID": "p54", "SOURCE_MAP": "EP2", "SOURCE_ID": "MANNIX_GAZ", "NAME": "St Bride", "DIGI_SCALE": 1000, "NAME_1": "Farringdon Without", "F_AREA": 126022.518522, "ORIG_FID": 214, "POINT_X": 531519.2152432194, "POINT_Y": 181144.17601540126 }, "geometry": { "type": "Point", "coordinates": [ -0.106051527778618, 51.513921845238656 ] } },
{ "type": "Feature", "properties": { "FID_LL_PA": 51, "ID": "p22", "SOURCE_MAP": "EP2", "SOURCE_ID": "MANNIX_GAZ", "NAME": "Precinct of Bridewelll", "DIGI_SCALE": 1000, "NAME_1": "Farringdon Within", "F_AREA": 1413.2781218600001, "ORIG_FID": 215, "POINT_X": 531631.51104270667, "POINT_Y": 180775.39903292805 }, "geometry": { "type": "Point", "coordinates": [ -0.104571733740158, 51.510581695009023 ] } },
{ "type": "Feature", "properties": { "FID_LL_PA": 51, "ID": "p22", "SOURCE_MAP": "EP2", "SOURCE_ID": "MANNIX_GAZ", "NAME": "Precinct of Bridewelll", "DIGI_SCALE": 1000, "NAME_1": "Farringdon Without", "F_AREA": 29768.837856900001, "ORIG_FID": 216, "POINT_X": 531601.35006070789, "POINT_Y": 180898.69491055235 }, "geometry": { "type": "Point", "coordinates": [ -0.104960121039767, 51.511696715489961 ] } },
{ "type": "Feature", "properties": { "FID_LL_PA": 52, "ID": "0", "SOURCE_MAP": "EP2", "SOURCE_ID": "LANDMARK", "NAME": "Furnival's Inn", "DIGI_SCALE": 1000, "NAME_1": "Holborn and Covent Garden", "F_AREA": 5612.3710577000002, "ORIG_FID": 217, "POINT_X": 531253.89114999957, "POINT_Y": 181651.99154208787 }, "geometry": { "type": "Point", "coordinates": [ -0.109683980233967, 51.518546995881479 ] } },
{ "type": "Feature", "properties": { "FID_LL_PA": 53, "ID": "0", "SOURCE_MAP": "EP2", "SOURCE_ID": "LANDMARK", "NAME": "Barnard's Inn", "DIGI_SCALE": 1000, "NAME_1": "Farringdon Without", "F_AREA": 2495.8383847300001, "ORIG_FID": 218, "POINT_X": 531276.59824999981, "POINT_Y": 181493.90302413329 }, "geometry": { "type": "Point", "coordinates": [ -0.109415734710637, 51.517121055861935 ] } },
{ "type": "Feature", "properties": { "FID_LL_PA": 54, "ID": "0", "SOURCE_MAP": "EP2", "SOURCE_ID": "LANDMARK", "NAME": "Thavies Inn", "DIGI_SCALE": 1000, "NAME_1": "Farringdon Without", "F_AREA": 3235.61599759, "ORIG_FID": 219, "POINT_X": 531411.41323653422, "POINT_Y": 181481.34468749911 }, "geometry": { "type": "Point", "coordinates": [ -0.10747857944807, 51.516976883867756 ] } },
{ "type": "Feature", "properties": { "FID_LL_PA": 55, "ID": "p31", "SOURCE_MAP": "EP2", "SOURCE_ID": "MANNIX_GAZ", "NAME": "St Andrew Holborn", "DIGI_SCALE": 1000, "NAME_1": "Farringdon Without", "F_AREA": 74098.248966800005, "ORIG_FID": 220, "POINT_X": 531482.75645000208, "POINT_Y": 181498.88783782348 }, "geometry": { "type": "Point", "coordinates": [ -0.106444439326879, 51.517117950541433 ] } },
{ "type": "Feature", "properties": { "FID_LL_PA": 55, "ID": "p31", "SOURCE_MAP": "EP2", "SOURCE_ID": "MANNIX_GAZ", "NAME": "St Andrew Holborn", "DIGI_SCALE": 1000, "NAME_1": "Holborn and Covent Garden", "F_AREA": 9965.9962565200003, "ORIG_FID": 221, "POINT_X": 531278.00982202217, "POINT_Y": 181598.80944188125 }, "geometry": { "type": "Point", "coordinates": [ -0.109356363012921, 51.518063473631628 ] } },
{ "type": "Feature", "properties": { "FID_LL_PA": 56, "ID": "p36", "SOURCE_MAP": "EP2", "SOURCE_ID": "MANNIX_GAZ", "NAME": "St Anne Blackfriars", "DIGI_SCALE": 1000, "NAME_1": "Farringdon Within", "F_AREA": 53183.690687399998, "ORIG_FID": 222, "POINT_X": 531807.39439949021, "POINT_Y": 181040.14922594652 }, "geometry": { "type": "Point", "coordinates": [ -0.101939846761525, 51.51291991159087 ] } },
{ "type": "Feature", "properties": { "FID_LL_PA": 56, "ID": "p36", "SOURCE_MAP": "EP2", "SOURCE_ID": "MANNIX_GAZ", "NAME": "St Anne Blackfriars", "DIGI_SCALE": 1000, "NAME_1": "Farringdon Without", "F_AREA": 396.73580991199998, "ORIG_FID": 223, "POINT_X": 531646.64341069292, "POINT_Y": 181011.32937275618 }, "geometry": { "type": "Point", "coordinates": [ -0.10426578798797, 51.512698365724646 ] } },
{ "type": "Feature", "properties": { "FID_LL_PA": 56, "ID": "p36", "SOURCE_MAP": "EP2", "SOURCE_ID": "MANNIX_GAZ", "NAME": "St Anne Blackfriars", "DIGI_SCALE": 1000, "NAME_1": "Castle Baynard", "F_AREA": 58.907065400900002, "ORIG_FID": 224, "POINT_X": 531857.63022336178, "POINT_Y": 181066.01963489316 }, "geometry": { "type": "Point", "coordinates": [ -0.101206667372026, 51.513140685274266 ] } },
{ "type": "Feature", "properties": { "FID_LL_PA": 57, "ID": "p35", "SOURCE_MAP": "EP2", "SOURCE_ID": "MANNIX_GAZ", "NAME": "St Andrew by the Wardrobe", "DIGI_SCALE": 1000, "NAME_1": "Farringdon Within", "F_AREA": 1196.6486525299999, "ORIG_FID": 225, "POINT_X": 531726.73654003348, "POINT_Y": 180872.29234161973 }, "geometry": { "type": "Point", "coordinates": [ -0.103164167667273, 51.511430257058237 ] } },
{ "type": "Feature", "properties": { "FID_LL_PA": 57, "ID": "p35", "SOURCE_MAP": "EP2", "SOURCE_ID": "MANNIX_GAZ", "NAME": "St Andrew by the Wardrobe", "DIGI_SCALE": 1000, "NAME_1": "Castle Baynard", "F_AREA": 45699.486540400001, "ORIG_FID": 226, "POINT_X": 531813.18408528809, "POINT_Y": 180839.9580572769 }, "geometry": { "type": "Point", "coordinates": [ -0.101931240700651, 51.511119542643428 ] } },
{ "type": "Feature", "properties": { "FID_LL_PA": 58, "ID": "p95", "SOURCE_MAP": "EP2", "SOURCE_ID": "MANNIX_GAZ", "NAME": "St Martin Ludgate", "DIGI_SCALE": 1000, "NAME_1": "Farringdon Within", "F_AREA": 10734.354014, "ORIG_FID": 227, "POINT_X": 531834.9745246144, "POINT_Y": 181162.07290490158 }, "geometry": { "type": "Point", "coordinates": [ -0.101497074763756, 51.514009150268976 ] } },
{ "type": "Feature", "properties": { "FID_LL_PA": 58, "ID": "p95", "SOURCE_MAP": "EP2", "SOURCE_ID": "MANNIX_GAZ", "NAME": "St Martin Ludgate", "DIGI_SCALE": 1000, "NAME_1": "Farringdon Without", "F_AREA": 8777.4596970999992, "ORIG_FID": 228, "POINT_X": 531754.34135114588, "POINT_Y": 181187.77916985005 }, "geometry": { "type": "Point", "coordinates": [ -0.102648808097001, 51.514258952287491 ] } },
{ "type": "Feature", "properties": { "FID_LL_PA": 58, "ID": "p95", "SOURCE_MAP": "EP2", "SOURCE_ID": "MANNIX_GAZ", "NAME": "St Martin Ludgate", "DIGI_SCALE": 1000, "NAME_1": "Castle Baynard", "F_AREA": 2.7110608855199998, "ORIG_FID": 229, "POINT_X": 531868.79331719689, "POINT_Y": 181132.44835712761 }, "geometry": { "type": "Point", "coordinates": [ -0.101021066249814, 51.513735044107307 ] } },
{ "type": "Feature", "properties": { "FID_LL_PA": 59, "ID": "p145", "SOURCE_MAP": "EP2", "SOURCE_ID": "MANNIX_GAZ", "NAME": "St Sepulchre", "DIGI_SCALE": 1000, "NAME_1": "Clerkenwell", "F_AREA": 50020.506025199997, "ORIG_FID": 230, "POINT_X": 531673.36546746828, "POINT_Y": 181817.74676095881 }, "geometry": { "type": "Point", "coordinates": [ -0.103579948307015, 51.519939022837207 ] } },
{ "type": "Feature", "properties": { "FID_LL_PA": 59, "ID": "p145", "SOURCE_MAP": "EP2", "SOURCE_ID": "MANNIX_GAZ", "NAME": "St Sepulchre", "DIGI_SCALE": 1000, "NAME_1": "Bunhill", "F_AREA": 27286.676536, "ORIG_FID": 231, "POINT_X": 531892.68074384425, "POINT_Y": 181883.57095403597 }, "geometry": { "type": "Point", "coordinates": [ -0.100396202178672, 51.5204794309102 ] } },
{ "type": "Feature", "properties": { "FID_LL_PA": 59, "ID": "p145", "SOURCE_MAP": "EP2", "SOURCE_ID": "MANNIX_GAZ", "NAME": "St Sepulchre", "DIGI_SCALE": 1000, "NAME_1": "Farringdon Within", "F_AREA": 23.2232088148, "ORIG_FID": 232, "POINT_X": 531819.08281322196, "POINT_Y": 181381.10557665117 }, "geometry": { "type": "Point", "coordinates": [ -0.1016441230895, 51.515981192409527 ] } },
{ "type": "Feature", "properties": { "FID_LL_PA": 59, "ID": "p145", "SOURCE_MAP": "EP2", "SOURCE_ID": "MANNIX_GAZ", "NAME": "St Sepulchre", "DIGI_SCALE": 1000, "NAME_1": "Aldersgate", "F_AREA": 55.7523465059, "ORIG_FID": 233, "POINT_X": 532013.56146874186, "POINT_Y": 181821.37992885336 }, "geometry": { "type": "Point", "coordinates": [ -0.098678231355734, 51.519892339594662 ] } },
{ "type": "Feature", "properties": { "FID_LL_PA": 59, "ID": "p145", "SOURCE_MAP": "EP2", "SOURCE_ID": "MANNIX_GAZ", "NAME": "St Sepulchre", "DIGI_SCALE": 1000, "NAME_1": "Farringdon Without", "F_AREA": 143396.802165, "ORIG_FID": 234, "POINT_X": 531749.69513171632, "POINT_Y": 181555.18622177653 }, "geometry": { "type": "Point", "coordinates": [ -0.102578521706164, 51.517561740474775 ] } },
{ "type": "Feature", "properties": { "FID_LL_PA": 60, "ID": "p43", "SOURCE_MAP": "EP2", "SOURCE_ID": "MANNIX_GAZ", "NAME": "St Bartholomew the Great", "DIGI_SCALE": 1000, "NAME_1": "Aldersgate", "F_AREA": 460.70796041900002, "ORIG_FID": 235, "POINT_X": 532071.68303909153, "POINT_Y": 181824.03993903473 }, "geometry": { "type": "Point", "coordinates": [ -0.097840024158359, 51.519902669533622 ] } },
{ "type": "Feature", "properties": { "FID_LL_PA": 60, "ID": "p43", "SOURCE_MAP": "EP2", "SOURCE_ID": "MANNIX_GAZ", "NAME": "St Bartholomew the Great", "DIGI_SCALE": 1000, "NAME_1": "Farringdon Without", "F_AREA": 35679.580330500001, "ORIG_FID": 236, "POINT_X": 531986.29015770461, "POINT_Y": 181686.49980663322 }, "geometry": { "type": "Point", "coordinates": [ -0.099121530831326, 51.518686609051656 ] } },
{ "type": "Feature", "properties": { "FID_LL_PA": 61, "ID": "p44", "SOURCE_MAP": "EP2", "SOURCE_ID": "MANNIX_GAZ", "NAME": "St Bartholomew the Less", "DIGI_SCALE": 1000, "NAME_1": "Farringdon Within", "F_AREA": 0.174923750519, "ORIG_FID": 237, "POINT_X": 531947.17181965522, "POINT_Y": 181471.33678724617 }, "geometry": { "type": "Point", "coordinates": [ -0.099765475431923, 51.516762179671787 ] } },
{ "type": "Feature", "properties": { "FID_LL_PA": 61, "ID": "p44", "SOURCE_MAP": "EP2", "SOURCE_ID": "MANNIX_GAZ", "NAME": "St Bartholomew the Less", "DIGI_SCALE": 1000, "NAME_1": "Aldersgate", "F_AREA": 82.2604864228, "ORIG_FID": 238, "POINT_X": 531956.61814176105, "POINT_Y": 181544.5516288504 }, "geometry": { "type": "Point", "coordinates": [ -0.099602029134985, 51.517417919589207 ] } },
{ "type": "Feature", "properties": { "FID_LL_PA": 61, "ID": "p44", "SOURCE_MAP": "EP2", "SOURCE_ID": "MANNIX_GAZ", "NAME": "St Bartholomew the Less", "DIGI_SCALE": 1000, "NAME_1": "Farringdon Without", "F_AREA": 16629.2731384, "ORIG_FID": 239, "POINT_X": 531911.5589072844, "POINT_Y": 181563.83027904108 }, "geometry": { "type": "Point", "coordinates": [ -0.100243840774056, 51.51760168094188 ] } },
{ "type": "Feature", "properties": { "FID_LL_PA": 62, "ID": "p50", "SOURCE_MAP": "EP2", "SOURCE_ID": "MANNIX_GAZ", "NAME": "St Botolph Aldersgate", "DIGI_SCALE": 1000, "NAME_1": "Bunhill", "F_AREA": 614.688262345, "ORIG_FID": 240, "POINT_X": 532044.23449616414, "POINT_Y": 181902.77887642942 }, "geometry": { "type": "Point", "coordinates": [ -0.098205928807147, 51.520616666472051 ] } },
{ "type": "Feature", "properties": { "FID_LL_PA": 62, "ID": "p50", "SOURCE_MAP": "EP2", "SOURCE_ID": "MANNIX_GAZ", "NAME": "St Botolph Aldersgate", "DIGI_SCALE": 1000, "NAME_1": "Cripplegate", "F_AREA": 5588.77006127, "ORIG_FID": 241, "POINT_X": 532158.60797359422, "POINT_Y": 181889.99703636579 }, "geometry": { "type": "Point", "coordinates": [ -0.096563202387188, 51.52047507854877 ] } },
{ "type": "Feature", "properties": { "FID_LL_PA": 62, "ID": "p50", "SOURCE_MAP": "EP2", "SOURCE_ID": "MANNIX_GAZ", "NAME": "St Botolph Aldersgate", "DIGI_SCALE": 1000, "NAME_1": "Aldersgate", "F_AREA": 73111.760385600006, "ORIG_FID": 242, "POINT_X": 532163.55790000129, "POINT_Y": 181667.45994705707 }, "geometry": { "type": "Point", "coordinates": [ -0.096575283212587, 51.518474098818842 ] } },
{ "type": "Feature", "properties": { "FID_LL_PA": 62, "ID": "p50", "SOURCE_MAP": "EP2", "SOURCE_ID": "MANNIX_GAZ", "NAME": "St Botolph Aldersgate", "DIGI_SCALE": 1000, "NAME_1": "Farringdon Without", "F_AREA": 516.36422902499999, "ORIG_FID": 243, "POINT_X": 532030.0997588383, "POINT_Y": 181589.34568105079 }, "geometry": { "type": "Point", "coordinates": [ -0.098526856047101, 51.517803306749556 ] } },
{ "type": "Feature", "properties": { "FID_LL_PA": 63, "ID": "p48", "SOURCE_MAP": "EP2", "SOURCE_ID": "MANNIX_GAZ", "NAME": "St Benet Paul's Wharf", "DIGI_SCALE": 1000, "NAME_1": "Castle Baynard", "F_AREA": 41880.8075599, "ORIG_FID": 244, "POINT_X": 531949.84526097775, "POINT_Y": 180843.59457301162 }, "geometry": { "type": "Point", "coordinates": [ -0.099961722968146, 51.511120353941806 ] } },
{ "type": "Feature", "properties": { "FID_LL_PA": 64, "ID": "p141", "SOURCE_MAP": "EP2", "SOURCE_ID": "MANNIX_GAZ", "NAME": "St Peter Paul's Wharf", "DIGI_SCALE": 1000, "NAME_1": "Queenhithe", "F_AREA": 14031.5182893, "ORIG_FID": 245, "POINT_X": 532048.34604438022, "POINT_Y": 180805.49637196586 }, "geometry": { "type": "Point", "coordinates": [ -0.098557397548575, 51.510754994757008 ] } },
{ "type": "Feature", "properties": { "FID_LL_PA": 64, "ID": "p141", "SOURCE_MAP": "EP2", "SOURCE_ID": "MANNIX_GAZ", "NAME": "St Peter Paul's Wharf", "DIGI_SCALE": 1000, "NAME_1": "Castle Baynard", "F_AREA": 3796.45434312, "ORIG_FID": 246, "POINT_X": 532060.32352500036, "POINT_Y": 180950.28164852224 }, "geometry": { "type": "Point", "coordinates": [ -0.098330720386002, 51.512053309706971 ] } },
{ "type": "Feature", "properties": { "FID_LL_PA": 65, "ID": "p110", "SOURCE_MAP": "EP2", "SOURCE_ID": "MANNIX_GAZ", "NAME": "St Mary Somerset", "DIGI_SCALE": 1000, "NAME_1": "Queenhithe", "F_AREA": 28100.2744991, "ORIG_FID": 247, "POINT_X": 532136.37173677795, "POINT_Y": 180789.03036434017 }, "geometry": { "type": "Point", "coordinates": [ -0.097295852378011, 51.510586463846266 ] } },
{ "type": "Feature", "properties": { "FID_LL_PA": 66, "ID": "p108", "SOURCE_MAP": "EP2", "SOURCE_ID": "MANNIX_GAZ", "NAME": "St Mary Mounthaw", "DIGI_SCALE": 1000, "NAME_1": "Queenhithe", "F_AREA": 3806.6325527899999, "ORIG_FID": 248, "POINT_X": 532155.5328594204, "POINT_Y": 180923.90101787075 }, "geometry": { "type": "Point", "coordinates": [ -0.096969394828193, 51.511793999699876 ] } },
{ "type": "Feature", "properties": { "FID_LL_PA": 66, "ID": "p108", "SOURCE_MAP": "EP2", "SOURCE_ID": "MANNIX_GAZ", "NAME": "St Mary Mounthaw", "DIGI_SCALE": 1000, "NAME_1": "Castle Baynard", "F_AREA": 4.6484149313199996, "ORIG_FID": 249, "POINT_X": 532099.65805688687, "POINT_Y": 180932.19027633965 }, "geometry": { "type": "Point", "coordinates": [ -0.097770996566396, 51.51188154524425 ] } },
{ "type": "Feature", "properties": { "FID_LL_PA": 67, "ID": "p132", "SOURCE_MAP": "EP2", "SOURCE_ID": "MANNIX_GAZ", "NAME": "St Nicholas Cole Abbey", "DIGI_SCALE": 1000, "NAME_1": "Queenhithe", "F_AREA": 2608.13668813, "ORIG_FID": 250, "POINT_X": 532147.46371695027, "POINT_Y": 180956.81396546215 }, "geometry": { "type": "Point", "coordinates": [ -0.097073280601762, 51.512091656913981 ] } },
{ "type": "Feature", "properties": { "FID_LL_PA": 67, "ID": "p132", "SOURCE_MAP": "EP2", "SOURCE_ID": "MANNIX_GAZ", "NAME": "St Nicholas Cole Abbey", "DIGI_SCALE": 1000, "NAME_1": "Castle Baynard", "F_AREA": 10.9223021682, "ORIG_FID": 251, "POINT_X": 532126.33316222485, "POINT_Y": 180982.42180051096 }, "geometry": { "type": "Point", "coordinates": [ -0.097368014976382, 51.512326718424447 ] } },
{ "type": "Feature", "properties": { "FID_LL_PA": 67, "ID": "p132", "SOURCE_MAP": "EP2", "SOURCE_ID": "MANNIX_GAZ", "NAME": "St Nicholas Cole Abbey", "DIGI_SCALE": 1000, "NAME_1": "Bread Street", "F_AREA": 3829.5188535500001, "ORIG_FID": 252, "POINT_X": 532178.50494992081, "POINT_Y": 180993.34914140403 }, "geometry": { "type": "Point", "coordinates": [ -0.096612539200578, 51.512412725423928 ] } },
{ "type": "Feature", "properties": { "FID_LL_PA": 68, "ID": "p71", "SOURCE_MAP": "EP2", "SOURCE_ID": "MANNIX_GAZ", "NAME": "St Gregory by St Paul's", "DIGI_SCALE": 1000, "NAME_1": "Farringdon Within", "F_AREA": 2236.718436, "ORIG_FID": 253, "POINT_X": 532017.43114268687, "POINT_Y": 181205.02463559806 }, "geometry": { "type": "Point", "coordinates": [ -0.098853147123009, 51.514352569531184 ] } },